,Business Address,Latitude,Longitude,Lifeline,Business Name,Business Category
0,"7575 Metropolitan Drive # 103, San Diego",32.7767669,-117.1566058,1,Coastal Commission,local_government_office
1,"1010 2nd Avenue #666, San Diego",32.7162522,-117.1633619,1,San Diego Collection Division,local_government_office
2,"880 Front Street Suite 4236, San Diego",32.7143258,-117.1653526,1,Senator Dianne Feinstein,local_government_office
3,"500 3rd Avenue, Chula Vista",32.6328632,-117.0772936,1,Superior Court South County Division,"courthouse, local_government_office"
4,"8505 Aero Drive, San Diego",32.8091099,-117.144154,1,Social Security Administration,local_government_office
5,"401 B Street #800, San Diego",32.717374,-117.160633,1,San Diego Association of Governments (SANDAG),local_government_office
6,"3375 Camino del Rio South, San Diego",32.7761723,-117.1206559,1,San Diego Community College District,"local_government_office, university"
7,"750 B Street # 300, San Diego",32.7180606,-117.1579595,1,Court of Appeal Clerk Office,local_government_office
8,"1600 Pacific Highway, San Diego",32.7219437,-117.1719177,1,San Diego Birth Certificates,local_government_office
9,"5510 Overland Avenue, San Diego",32.8334823,-117.1296858,1,San Diego County Planning & Development Services,local_government_office
10,"3165 Pacific Highway, San Diego",32.7353163,-117.1772172,1,Port of San Diego,"tourist_attraction, local_government_office"
11,"3851 Rosecrans Street, San Diego",32.7526794,-117.2019373,1,Health and Human Services Agency,"local_government_office, health"
12,"5201 Ruffin Court # N, San Diego",32.82980189999999,-117.1252873,1,San Diego County Trade Dev,local_government_office
13,"5755 Oberlin Drive #301, San Diego",32.8925852,-117.1942001,1,"Express Travel Services,Inc - Passport & Visa Agency San Diego","travel_agency, local_government_office"
14,"7676 Hazard Center Drive 5th Floor, San Diego",32.7714105,-117.1567095,1,The Law Office of Bradley R. Corbett,"lawyer, local_government_office"
15,"3851 Rosecrans Street, San Diego",32.7526947,-117.2019334,1,San Diego County Tuberculosis,local_government_office
16,"3111 Camino Del Rio North # 400, San Diego",32.7747538,-117.1274727,1,Milvets Systems Technology Inc,local_government_office
17,"7961 University Avenue, La Mesa",32.7642933,-117.0264177,1,Social Security Office,local_government_office
18,"2525 Camino del Rio South Ste. 325, San Diego",32.76779130000001,-117.137551,1,Passport Health San Diego (Camino Del Rio) Travel Clinic,"local_government_office, health"
19,"402 West Broadway, San Diego",32.7162107,-117.1669839,1,AJL Video,local_government_office
20,"8880 Rio San Diego Drive #800, San Diego",32.7767083,-117.1388284,1,Regal Group CPA,"accounting, finance, local_government_office"
21,"7575 Metropolitan Drive #211, San Diego",32.7767439,-117.1567139,1,Health Service Department,"local_government_office, health"
22,"1350 Front Street # 3005, San Diego",32.7194187,-117.1650783,1,Administrative Hearings Office,local_government_office
23,"9225 Clairemont Mesa Boulevard, San Diego",32.830882,-117.12925,1,San Diego Deed & Document Record,local_government_office
24,"4510 Executive Drive, San Diego",32.87615829999999,-117.2108647,1,US Food & Drug Administration,"local_government_office, health"
25,"250 East Main Street #1, El Cajon",32.79679969999999,-116.9589774,1,Superior Court East County Division,"courthouse, local_government_office"
26,"1200 Third Avenue, San Diego",32.7181792,-117.1625402,1,San Diego Special Events,local_government_office
27,"6111 Business Center Court, San Diego",32.5688786,-117.0031524,1,San Ysidro DMV,local_government_office
28,"2851 Meadow Lark Drive, San Diego",32.7954793,-117.1542689,1,Juvenile Court,"courthouse, local_government_office"
29,"16935 West Bernardo Drive # 103, San Diego",33.022176,-117.081406,1,Technicolor USA Inc,local_government_office
30,"1450 Graves Avenue, El Cajon",32.8173386,-116.9599063,1,California Department of Motor Vehicles,local_government_office
31,"10920 Via Frontera # 300, San Diego",33.0140256,-117.0944738,1,Department of General Services,local_government_office
32,"5510 Overland Avenue #270, San Diego",32.8334641,-117.1296759,1,Department of Public Works - Survey Records,local_government_office
33,"1 Civic Center Drive, San Marcos",33.1404469,-117.1609222,1,San Marcos City Hall,"city_hall, local_government_office"
34,"367 North Magnolia Avenue #101, El Cajon",32.7985196,-116.9605032,1,East Region Public Health,"local_government_office, health"
35,"Symphony Tower, 750 B Street #1600, San Diego",32.71799369999999,-117.1578011,1,US Housing & Urban Dev Department,local_government_office
36,"5202 University Avenue, San Diego",32.749553,-117.083318,1,San Diego County Public Health,"local_government_office, health"
37,"5530 Overland Avenue, San Diego",32.8347943,-117.1294514,1,San Diego County Human Resources,local_government_office
38,"1151 25th Street, San Diego",32.57540129999999,-117.0780751,1,Coronado Terrace Apartments,local_government_office
39,"401 West A Street #1300, San Diego",32.71829400000001,-117.1669316,1,County Employees Retire System,local_government_office
40,"1600 Pacific Highway # 402, San Diego",32.72194869999999,-117.1721077,1,San Diego Board-Assmts Appeals,local_government_office
41,"330 West Broadway # 8, San Diego",32.7161675,-117.1660509,1,San Diego Case Issuance,local_government_office
42,"4050 Taylor Street, San Diego",32.7569475,-117.1993557,1,California Department of Transportation District 11,local_government_office
43,"2801 Meadow Lark Drive, San Diego",32.7941465,-117.1539666,1,San Diego Juvenile Hall,"courthouse, local_government_office"
44,"501 West Broadway # 1260, San Diego",32.715111,-117.16777,1,Noon & Associates,"lawyer, local_government_office"
45,"8965 Balboa Avenue, San Diego",32.8210577,-117.1356309,1,San Diego County Guardianship,local_government_office
46,"1 Civic Center Drive, San Marcos",33.14065829999999,-117.1608995,1,San Marcos Business License,local_government_office
47,"9621 Ridgehaven Court, San Diego",32.818928,-117.121398,1,San Diego County Sheriff's Department Headquarters,"police, local_government_office"
48,"635 Highway 101, Solana Beach",32.983616,-117.2701208,1,Solana Beach City Clerk,local_government_office
49,"Trolley Plaza, San Diego",32.7055909,-117.1534308,1,Mills Building | MTS Center,local_government_office
50,"6401 Linda Vista Road, San Diego",32.769582,-117.1796886,1,Superintendent of Schools,local_government_office
51,"5902 Kearny Villa Road, San Diego",32.83960549999999,-117.1304566,1,California Highway Patrol,local_government_office
52,"1157 West Mission Avenue, Escondido",33.12401359999999,-117.1023327,1,United States Postal Service,"post_office, finance, local_government_office"
53,"5580 Overland Avenue, San Diego",32.8347007,-117.1333281,1,San Diego County Office of Emergency Services,local_government_office
54,"2260 Jimmy Durante Boulevard, Del Mar",32.9739692,-117.2636209,1,"State of California, 22nd District Agricultural Association",local_government_office
55,"324 Horton Plaza, San Diego",32.7137722,-117.1624218,1,Fire Engine Dogs,fire_station
56,Carlsbad,33.1055753,-117.3054058,1,Carlsbad Fire Station 4,fire_station
57,"635 Highway 101, Solana Beach",32.9835749,-117.2702294,1,Solana Beach Fire Department,fire_station
58,"14145 California 94, Jamul",32.7053015,-116.8682384,1,San Diego County Fire Station 36,fire_station
59,"2850 Via Orange Way, Spring Valley",32.73016500000001,-116.969798,1,San Miguel Fire District Station 15,fire_station
60,"421 North Midway Drive, Escondido",33.1382225,-117.0526065,1,Escondido Fire Department Station 2,fire_station
61,"7201 Rancho Santa Fe Road, Carlsbad",33.0944943,-117.2258216,1,City of Carlsbad Fire Station 6,fire_station
62,"4900 Bonita Road, Bonita",32.665544,-117.0232361,1,Bonita-Sunnyside Fire Protection District,fire_station
63,"809 Nautilus Street, La Jolla",32.8326844,-117.2721421,1,San Diego Fire Department Station 13,fire_station
64,"266 East Oneida Street, Chula Vista",32.6147105,-117.0444627,1,Chula Vista Fire Department Station 9,fire_station
65,"3974 Goldfinch Street, San Diego",32.74948800000001,-117.1716759,1,San Diego Fire-Rescue Department Station 8,fire_station
66,"198 West San Ysidro Boulevard, San Diego",32.5531998,-117.0474904,1,San Diego Fire-Rescue Department Station 29,fire_station
67,"3698 Pacific Highway, San Diego",32.73590410000001,-117.1899745,1,Airport Fire Station,fire_station
68,"3255 Helix Street, Spring Valley",32.7416902,-116.9982818,1,San Miguel Fire District Station 14,fire_station
69,"4206 Chamoune Avenue, San Diego",32.7534105,-117.0967309,1,San Diego Fire-Rescue Department Station 17,fire_station
70,"1972 Chicago Street, San Diego",32.78191109999999,-117.2063327,1,San Diego Fire-Rescue Department Station 25,fire_station
71,"4914 Carroll Canyon Road, San Diego",32.8901792,-117.2006719,1,San Diego Fire-Rescue Department Station 41,fire_station
72,"5855 Chateau Drive, San Diego",32.8222028,-117.1746022,1,San Diego Fire-Rescue Department Station 36,fire_station
73,"200 Civic Center Way, El Cajon",32.7964872,-116.9598502,1,El Cajon Treasurer Administration,fire_station
74,"905 Gillespie Drive, Spring Valley",32.7097738,-117.0069668,1,San Miguel Fire District Station 16,fire_station
75,"6565 Cowles Mountain Boulevard, San Diego",32.80254,-117.0251589,1,San Diego Fire-Rescue Department Station 34,fire_station
76,"107 Albatross Place, El Cajon",32.8021797,-116.8694596,1,Little Fire Truck Co,fire_station
77,"2140 Dehesa Road, El Cajon",32.7880728,-116.9048269,1,San Miguel Fire District Station 23,fire_station
78,"1180 Woods Drive, Chula Vista",32.6457406,-116.9456555,1,Chula Vista Fire Department Station 8,fire_station
79,"2265 Coronado Avenue, San Diego",32.5761707,-117.0849415,1,San Diego Fire-Rescue Department Station 30,fire_station
80,"1640 Santa Venetia Street, Chula Vista",32.6212176,-116.984849,1,Chula Vista Fire Department Station 7,fire_station
81,"1055 Catalina Boulevard, San Diego",32.7255794,-117.2444416,1,San Diego Fire-Rescue Department Station 22,fire_station
82,"500 Lomas Santa Fe Drive, Solana Beach",32.9952069,-117.2665689,1,Solana Beach Fire Department,fire_station
83,"1410 Brandywine Avenue, Chula Vista",32.6101388,-117.0288093,1,Chula Vista Fire Department Station 3,fire_station
84,"944 Cesar E. Chavez Parkway, San Diego",32.700977,-117.1450093,1,San Diego Fire-Rescue Department Station 7,fire_station
85,"1590 La Media Road, San Diego",32.5688324,-116.9627707,1,San Diego Fire-Rescue Department Station 43,fire_station
86,"4711 Voltaire Street, San Diego",32.7487503,-117.2418009,1,San Diego Fire-Rescue Department Station 15,fire_station
87,"Veracruz, Manuelparedes II, Tijuana",32.50909599999999,-117.066503,1,TIJUANA Fire Brigade B.C. Season 7,fire_station
88,"2870 Main Street, San Diego",32.6930956,-117.1323086,1,Global Fire & Safety,fire_station
89,La Mesa,32.76782869999999,-117.0230839,1,Us Fish & Wildlife Fire Management,fire_station
90,"16936 El Fuego, Rancho Santa Fe",33.0199013,-117.2073546,1,Rancho Santa Fe Fire Protection District Station 1,fire_station
91,"1811 Suncrest Boulevard, El Cajon",32.8070225,-116.8638975,1,San Miguel Fire District Station 18,fire_station
92,"1222 1st Avenue, San Diego",32.7181481,-117.1642239,1,City Disaster Preparedness Office,fire_station
93,"33 Saufley Street, San Diego",32.710241,-117.1934963,1,Federal Fire San Diego Station 12,fire_station
94,"614 Belleau Woods Avenue, San Diego",32.7427709,-117.1915885,1,Federal Fire San Diego Station 19,fire_station
95,San Diego,32.68404750000001,-117.1264126,1,Federal Fire San Diego Station 16,fire_station
96,"3657 Norman Scott Road, San Diego",32.6851588,-117.118141,1,Federal Fire San Diego Station 17,fire_station
97,San Diego,32.6835291,-117.237167,1,Federal Fire San Diego Station 111,fire_station
98,"9366 Friars Road, San Diego",32.7864695,-117.1241753,1,San Diego Fire-Rescue Department Station 45,fire_station
99,"6135 Imperial Avenue, San Diego",32.70895119999999,-117.066446,1,San Diego Fire-Rescue Department Squad 55,fire_station
100,"4605 62nd Street, San Diego",32.7608714,-117.0636231,1,San Diego Fire-Rescue Department Station 10,fire_station
101,"101 Grand Caribe Causeway, Coronado",32.62270580000001,-117.1348856,1,Coronado Fire Department Station 2,fire_station
102,"3880 Kearny Villa Road, San Diego",32.8123629,-117.1507623,1,San Diego Fire-Rescue Department Station 28,fire_station
103,"7180 Skyline Drive, San Diego",32.70352210000001,-117.0434116,1,San Diego Fire-Rescue Department Station 51,fire_station
104,San Diego,32.8250767,-117.2029363,1,Childress Fire Investigations,fire_station
105,"2110 Via Casa Alta, La Jolla",32.8392662,-117.2503736,1,San Diego Fire-Rescue Department Station 16,fire_station
106,"9110 Grossmont Boulevard, La Mesa",32.7736019,-117.001292,1,La Mesa Fire Department Station 13,fire_station
107,"8844 Dallas Street, La Mesa",32.7915855,-117.0055699,1,La Mesa Fire Department Station 12,fire_station
108,"14008 Interstate 8 Business Loop, El Cajon",32.8442118,-116.8845007,1,Lakeside Fire Station 3,fire_station
109,"10105 Vivera Drive, La Mesa",32.76984249999999,-116.9800656,1,San Miguel Fire District Station 21,fire_station
110,"695 Tyrone Street, El Cajon",32.803104,-116.9929407,1,Fire Station 7,fire_station
111,El Cajon,32.803284,-116.992511,1,Station 7,fire_station
112,"605 Mount Miguel Road, Chula Vista",32.65997469999999,-116.9710104,1,Chula Vista Fire Department Station 6,fire_station
113,"1301 North Marshall Avenue, El Cajon",32.81362310000001,-116.9753865,1,El Cajon Fire Department Station 9,fire_station
114,"11501 Via Rancho San Diego, El Cajon",32.7482508,-116.9289692,1,San Miguel Fire District Station 22,fire_station
115,"315 4th Avenue, Chula Vista",32.63996449999999,-117.0836802,1,City of Chula Vista Police Department,police
116,"3350 La Jolla Village Drive, San Diego",32.8750749,-117.2321714,1,Police & Security,police
117,"3240 Main Street, Lemon Grove",32.740527,-117.031609,1,San Diego County Sheriff's Department Lemon Grove Substation,"police, local_government_office"
118,"10440 Black Mountain Road, San Diego",32.9061639,-117.1191938,1,San Diego Regional Public Safety Training Institute,police
119,"315 4th Avenue, Chula Vista",32.6399421,-117.0826832,1,Chula Vista Police-Juvenile,police
120,"315 4th Avenue, Chula Vista",32.6399925,-117.0827967,1,Chula Vista Police Department-Drugs,police
121,"5348 University Avenue #100, San Diego",32.7494215,-117.081145,1,San Diego Police Department Multi-Cultural Community Relations,"police, local_government_office"
122,"4310 Landis Street, San Diego",32.7467283,-117.1014417,1,San Diego Police Department Mid-City Division,police
123,"9225 Aero Drive, San Diego",32.8094321,-117.1289725,1,San Diego Police Department Eastern Division,police
124,"1409 Fourth Avenue, San Diego",32.7202284,-117.1610201,1,San Diego County Sheriff's Department,"police, local_government_office"
125,"551 South 35th Street, San Diego",32.7002141,-117.1185413,1,Correctional Alternatives Inc,"police, local_government_office"
126,"250 East Main Street, El Cajon",32.7968083,-116.9590708,1,San Diego County Sheriff's Department El Cajon Civil Division,"police, local_government_office"
127,"182 Santar Place, San Marcos",33.1418785,-117.1466126,1,San Diego County Sheriff's Department,"police, local_government_office"
128,"100 Civic Center Way, El Cajon",32.7968556,-116.9604268,1,El Cajon Police Department,police
129,"500 3rd Avenue, Chula Vista",32.6327466,-117.0777261,1,South Bay Detention Facility,"police, local_government_office"
130,"201 North Broadway, Escondido",33.1227533,-117.0831068,1,Citizens Patrol Escondido,"local_government_office, police"
131,"8085 University Avenue, La Mesa",32.7670261,-117.0231207,1,La Mesa Police Department,police
132,"4100 Normal Street, San Diego",32.75504649999999,-117.1481013,1,San Diego School Police Department,police
133,"2560 Orion Way, Carlsbad",33.13784789999999,-117.2652844,1,Carlsbad Police Department,"police, local_government_office"
134,"1163 Centre City Parkway, Escondido",33.1356723,-117.0938069,1,Escondido Police Department,police
135,"175 North El Camino Real, Encinitas",33.0494238,-117.2585459,1,San Diego County Sheriff's Department North Coastal Station,"police, local_government_office"
136,"950 Marina Way, Chula Vista",32.6208499,-117.1031252,1,San Diego Harbor Police Chula Vista/South Bay Substation,police
137,San Diego,32.7160398,-117.1490943,1,SDCCD Police,police
138,"3380 North Harbor Drive, San Diego",32.7285483,-117.194138,1,San Diego Harbor Police Department,police
139,"5215 Gaines Street, San Diego",32.76410759999999,-117.1945054,1,San Diego Police Department Western Division,police
140,"1536 Frazee Road, San Diego",32.774002,-117.159923,1,San Diego Community College Police,police
141,"1000 Bay Marina Drive, National City",32.658481,-117.1126297,1,San Diego Dispatch,police
142,"9265 Aero Drive, San Diego",32.8092644,-117.1269808,1,San Diego Police Department Traffic Division,police
143,"7222 Skyline Drive, San Diego",32.70391650000001,-117.0425614,1,San Diego Police Department,police
144,"Kiowa Drive, La Mesa",32.7780457,-117.0405272,1,"Rangers, San Diego Water Department",police
145,"2 Greenhouse Lane, La Jolla",32.8826508,-117.2296864,1,UC San Diego Police Department,police
146,"11486 Campo Road, Spring Valley",32.7402529,-116.9472791,1,San Diego County Sheriff's Department Rancho San Diego Station,"police, local_government_office"
147,"8450 Mira Mesa Boulevard, San Diego",32.9131901,-117.1415653,1,San Diego Police Department RSVP Station,police
148,"Calle Alamo, Ciudad Jardin, Tijuana",32.514168,-117.062551,1,Police station Ciudad Jardin,police
149,"Calle Vicente Suárez, Hidalgo, Tijuana",32.5158829,-117.044524,1,Secretaría de Seguridad Pública Caseta de Policia Hidalgo,police
150,"Altabrisa, Tijuana",32.52982800000001,-116.9789114,1,Policia Municipal (Otay),police
151,"12365 Parkside Street, Lakeside",32.8579037,-116.9234555,1,San Diego County Sheriff's Department Lakeside Substation,"police, local_government_office"
152,"Avenida Flores Magón, Pedregalde Santa Julia, Tijuana",32.483292,-117.065033,1,SUBDELEGACIÓN SALVATIERRA,"police, local_government_office"
153,"Boulevard Alberto Limón Padilla, Ciudad Industrial, Tijuana",32.53730520000001,-116.9221572,1,POLICíA MUNICIPAL Distrito IX Centenario,police
154,"Calle 1 Norte 1125, Ciudad Industrial, Tijuana",32.5417886,-116.9127481,1,Police Directorate and Municipal Transit,police
155,"Boulevard Las Huertas, Huertas 1ra Sección, Tijuana",32.4864759,-116.950018,1,AYUNTAMIENTO DE TIJUANA SSPM,police
156,"10282 Rancho Bernardo Road, San Diego",33.02138779999999,-117.1189798,1,San Diego County Sheriff's Department,"police, local_government_office"
157,"Carretera Antigua a, Calle Tecate n, Presa Rodriguez, Tijuana",32.447869,-116.909639,1,Policía Municipal de Tijuana A.C. Los Pinos,police
158,"175 North El Camino Real, Encinitas",33.0493802,-117.2585638,1,Solana Beach Police Department,police
159,"2751 Alpine Boulevard, Alpine",32.8341517,-116.7541444,1,San Diego County Sheriff's Department Alpine Station,"police, local_government_office"
160,"5555 Overland Avenue # 19, San Diego",32.8346704,-117.133237,1,San Diego County Sheriff's Department Communication Center,"police, local_government_office"
161,"2501 Imperial Avenue, San Diego",32.7060726,-117.1398634,1,San Diego Police Department Central Division,police
162,"13100 Bowron Road, Poway",32.9553544,-117.0465333,1,San Diego County Sheriff's Department,"police, local_government_office"
163,"1120 27th Street, San Diego",32.5760578,-117.0759949,1,San Diego Police Department,police
164,"4275 Eastgate Mall, La Jolla",32.8768766,-117.2156345,1,San Diego Police Department Northern Division,police
165,"8811 Cuyamaca Street, Santee",32.8364561,-116.9834036,1,San Diego County Sheriff's Department,"police, local_government_office"
166,"772 Jamacha Road, El Cajon",32.7860185,-116.9279253,1,"Mo Parga Horse Training, Inc.",police
167,"700 Orange Avenue, Coronado",32.6898383,-117.1781368,1,Coronado Police Department,police
168,"Campus Way, San Marcos",33.1341738,-117.1543263,1,CSUSM Police,police
169,"182 Santar Place, San Marcos",33.14197579999999,-117.1466452,1,Palomar College Police Academy,police
170,"4439 Olney Street, San Diego",32.8012417,-117.2292718,1,SDPD Community Relations,police
171,"201 North Broadway, Escondido",33.1227665,-117.083183,1,Escondido City Hall,"city_hall, local_government_office"
172,"8130 Allison Avenue, La Mesa",32.7665226,-117.0227076,1,La Mesa City Hall,"city_hall, local_government_office"
173,"Civic Center Plaza, San Diego",32.7170716,-117.1625574,1,City of San Diego,"city_hall, local_government_office"
174,"202 C Street, San Diego",32.7169424,-117.1626309,1,San Diego City Hall,"city_hall, local_government_office"
175,"1200 Third Avenue, San Diego",32.71792540000001,-117.1626251,1,Civic Center Plaza,"city_hall, local_government_office"
176,"1243 National City Boulevard, National City",32.6721458,-117.1048483,1,National City,"city_hall, local_government_office"
177,"10601 North Magnolia Avenue, Santee",32.87050499999999,-116.969925,1,The City of Santee,"city_hall, local_government_office"
178,San Diego,32.94874979999999,-117.2339935,1,Carmel Valley Community Center,"city_hall, local_government_office"
179,"Blvd. Insurgentes # 1760-8, Los Alamos, Tijuana",32.5035216,-116.9447694,1,TIJUANA CITY COUNCIL DIF,"city_hall, local_government_office"
180,"1050 Camino Del Mar, Del Mar",32.9551705,-117.2639834,1,Del Mar City Hall,"city_hall, local_government_office"
181,"825 Imperial Beach Boulevard, Imperial Beach",32.5762965,-117.1161238,1,Imperial Beach Civic Center,"city_hall, local_government_office"
182,"505 South Vulcan Avenue, Encinitas",33.0455242,-117.2914512,1,Encinitas City Hall,"city_hall, local_government_office"
183,"276 4th Avenue, Chula Vista",32.64050439999999,-117.0846946,1,City of Chula Vista - City Hall,"city_hall, local_government_office"
184,"1827 India Street, San Diego",32.7240498,-117.1682977,1,Little Italia San Diego C.A,"city_hall, local_government_office"
185,"825 Imperial Beach Boulevard, Imperial Beach",32.5762965,-117.1161237,1,City of Imperial Beach,"city_hall, local_government_office"
186,"825 Imperial Beach Boulevard, Imperial Beach",32.5762536,-117.1162391,1,City Hall- ImperiaL Beach,"city_hall, local_government_office"
187,"8602 Garde Court, San Diego",32.9185709,-117.1381688,1,City of Mira Mesa,"city_hall, local_government_office"
188,"Libertad, Tijuana",32.532708,-117.013702,1,Señalamiento Vial DSPM Tijuana,"city_hall, local_government_office"
189,"Boulevard Cuauhtemoc Sur Oriente 2, Revolucion, Tijuana",32.5208905,-117.0213414,1,Secretaria de Salud,"city_hall, local_government_office"
190,"13325 Civic Center Drive, Poway",32.9540463,-117.042563,1,Poway City Hall,"city_hall, local_government_office"
191,"Cedro 10108, Valle del Sur, Tijuana",32.473674,-117.0275613,1,Centro de transferencia,"city_hall, local_government_office"
192,"635 Highway 101, Solana Beach",32.983648,-117.2700004,1,City Hall of Solana Beach,"city_hall, local_government_office"
193,"Calle José Haros Aguilar 2000, Fracc. Villa Turistica, Rosarito",32.3636548,-117.0544204,1,Palacio Municipal Playas de Rosarito,"city_hall, local_government_office"
194,"Playas Rosarito, Rosarito",32.363597,-117.054287,1,SECRETARY OF FINANCE,"city_hall, local_government_office"
195,"5045 Shoreham Place, San Diego",32.8518281,-117.1846778,1,US Post Office - Pickup & Dropoff Only,"post_office, finance"
196,"16960 Bernardo Center Drive, San Diego",33.02151139999999,-117.0751346,1,United States Postal Service,"post_office, finance"
197,"11251 Rancho Carmel Drive, San Diego",32.983975,-117.081188,1,United States Postal Service,"post_office, finance"
198,"34800 Bob Wilson Drive, San Diego",32.7288371,-117.1455495,1,United States Postal Service,"post_office, finance"
199,"750 3rd Avenue, Chula Vista",32.625457,-117.0746346,1,United States Postal Service,"post_office, finance"
200,"4740 Mission Gorge Place, San Diego",32.78202339999999,-117.0909949,1,United States Postal Service,"post_office, finance"
201,"5073 Central Avenue, Bonita",32.66962420000001,-117.0210564,1,United States Postal Service,"post_office, finance"
202,"8690 Aero Drive # 115, San Diego",32.810305,-117.1408183,1,Aero Mail,"post_office, finance, store"
203,"867 North 2nd Street, El Cajon",32.80684259999999,-116.9353062,1,United States Postal Service,"post_office, finance"
204,"11251 Rancho Carmel Drive, San Diego",32.9838551,-117.0807624,1,Margaret L. Sellers Processing and Distribution Center,"post_office, finance, storage"
205,"2960 Fern Avenue, San Diego",32.5742996,-117.0693868,1,United States Postal Service,"post_office, finance"
206,"2493 Roll Drive #210, San Diego",32.5535487,-116.9364795,1,Correo Internacional,"post_office, finance"
207,"1150 Garden View Road, Encinitas",33.0582796,-117.2644427,1,United States Postal Service,"post_office, finance, local_government_office"
208,"Plaza Ejecutiva Carrusel, Boulevard Federico Benítez López 14785, Gas y Anexas, Tijuana",32.4991371,-116.957678,1,Estafeta La Mesa,"post_office, finance"
209,"10807 Vista Sorrento Parkway, San Diego",32.9041526,-117.2223209,1,United States Postal Service,"post_office, finance"
210,"4492 Camino De La Plaza, San Ysidro",32.5455925,-117.0375255,1,San Ysidro Postal Center,"post_office, finance"
211,"3426 College Avenue, San Diego",32.7419621,-117.0562363,1,United States Postal Service,"post_office, finance, local_government_office"
212,"6519 Bisby Lake Avenue, San Diego",32.8005391,-117.0134309,1,United States Postal Service,"post_office, finance"
213,"5344 Jackson Drive, La Mesa",32.7761623,-117.0169765,1,United States Postal Service,"post_office, finance"
214,"Lázaro Cárdenas 1000, Rivero Alamard, Tijuana",32.5293345,-117.0861223,1,Telegrafos Conm Central Camionera,"post_office, finance"
215,"Avenida Miguel Negrete 265, Tijuana",32.5237549,-117.0323266,1,Telecom Telegrafos,"post_office, finance"
216,"6620 Flanders Drive, San Diego",32.9063395,-117.1765853,1,NALC,"post_office, finance"
217,"Aguascalientes 6, Lomas Alta, Sonora",32.5155992,-117.0016455,1,Telecom,"post_office, finance"
218,"51 Horton Avenue, San Diego",32.71453789999999,-117.1628491,1,United States Postal Service,"post_office, finance"
219,"124 Murray Ave Bldg 124, San Diego",32.7118134,-117.1922015,1,United States Postal Service,"post_office, finance"
220,"2777 Logan Avenue, San Diego",32.6968588,-117.1341704,1,United States Postal Service,"post_office, finance"
221,"3911 Cleveland Avenue, San Diego",32.749465,-117.1506327,1,United States Postal Service,"post_office, finance"
222,"1320 Ynez Place, Coronado",32.683482,-117.1775284,1,United States Postal Service,"post_office, finance"
223,"1400-1498 Ynez Place, Coronado",32.683609,-117.1770926,1,Coronado post office,"post_office, finance"
224,"4300 Belleau Woods Avenue Bldg 148, San Diego",32.74184890000001,-117.1907264,1,United States Postal Service,"post_office, finance"
225,"2701 Midway Drive, San Diego",32.7467992,-117.2038107,1,United States Postal Service,"post_office, finance"
226,"1640 Camino Del Rio North Ste 202, San Diego",32.7691621,-117.1488572,1,United States Postal Service,"post_office, finance"
227,"3288 Adams Avenue, San Diego",32.7635909,-117.1230568,1,United States Postal Service,"post_office, finance"
228,"4193 University Avenue, San Diego",32.7494254,-117.1048586,1,United States Postal Service,"post_office, finance"
229,"2931 Cañon Street, San Diego",32.7211606,-117.2314998,1,United States Postal Service,"post_office, finance"
230,"2600 Camino Del Rio North, San Diego",32.7730031,-117.136085,1,USPS Passport Acceptance,"post_office, finance"
231,"2150 Comstock Street, San Diego",32.7824562,-117.17101,1,United States Postal Service,"post_office, finance"
232,"710 East 16th Street, National City",32.6705771,-117.0966142,1,United States Postal Service,"post_office, finance"
233,"5505 Stevens Way, San Diego",32.709001,-117.0770796,1,United States Postal Service,"post_office, finance"
234,"4833 Santa Monica Avenue, San Diego",32.745769,-117.2476517,1,United States Postal Service,"post_office, finance"
235,"3223 Greyling Drive, San Diego",32.8016413,-117.1397815,1,United States Postal Service,"post_office, finance"
236,"2356 Reo Drive, San Diego",32.6754696,-117.0650493,1,United States Postal Service,"post_office, finance"
237,"6401 El Cajon Boulevard, San Diego",32.7640506,-117.0600604,1,United States Postal Service,"post_office, finance"
238,"4640 Cass Street, San Diego",32.7988279,-117.2529843,1,United States Postal Service,"post_office, finance"
239,"7938 Broadway, Lemon Grove",32.7431488,-117.0282876,1,United States Postal Service,"post_office, finance"
240,"5052 Clairemont Drive, San Diego",32.8337854,-117.2020009,1,United States Postal Service,"post_office, finance"
241,"8064 Allison Avenue, La Mesa",32.7665675,-117.0233248,1,United States Postal Service,"post_office, finance"
242,"340 Oxford Street, Chula Vista",32.6102066,-117.0697841,1,United States Postal Service,"post_office, finance, local_government_office"
243,"6030 Santo Road Ste I, San Diego",32.8405229,-117.0981736,1,United States Postal Service,"post_office, finance"
244,"5500 Grossmont Center Drive Ste 440, La Mesa",32.7776322,-117.0144217,1,United States Postal Service,"post_office, finance"
245,"6055 Lake Murray Boulevard, La Mesa",32.78873129999999,-117.0217095,1,United States Postal Service,"post_office, finance"
246,"946 Donax Avenue, Imperial Beach",32.5826101,-117.1134259,1,United States Postal Service,"post_office, finance"
247,"3298 Governor Drive, San Diego",32.8511891,-117.2144563,1,United States Postal Service,"post_office, finance, local_government_office"
248,"1144 13th Street, Imperial Beach",32.5755848,-117.1060916,1,US Post Office,"post_office, finance"
249,"9805 Campo Road Ste 165, Spring Valley",32.7471027,-116.9858913,1,United States Postal Service,"post_office, finance"
250,"10174 Austin Drive, Spring Valley",32.73155980000001,-116.9725684,1,United States Postal Service,"post_office, finance, local_government_office"
251,"8650 Genesee Avenue Ste 214, San Diego",32.8686737,-117.2151212,1,United States Postal Service,"post_office, finance"
252,"1140 Wall Street, La Jolla",32.8472897,-117.2723945,1,United States Postal Service,"post_office, finance"
253,"650 Dennery Road Ste 102, San Diego",32.5825884,-117.0345064,1,United States Postal Service,"post_office, finance"
254,"315 4th Ave, Chula Vista, CA 91910, United States",32.6399645,-117.0836802,1,City of Chula Vista Police Department,police
255,"5215 Gaines St, San Diego, CA 92110, United States",32.7641076,-117.1945054,1,San Diego Police Department Western Division,police
256,"3380 N Harbor Dr, San Diego, CA 92101, United States",32.7285483,-117.194138,1,San Diego Harbor Police Department,police
257,"1163 Centre City Parkway, Escondido, CA 92026, United States",33.1356723,-117.0938069,1,Escondido Police Department,police
258,"1401 Broadway, San Diego, CA 92101, United States",32.7153064,-117.1506481,1,San Diego Police Headquarters,police
259,"2501 Imperial Ave, San Diego, CA 92102, United States",32.7060726,-117.1398634,1,San Diego Police Department Central Division,police
260,"13396 Salmon River Rd, San Diego, CA 92129, United States",32.9592551,-117.1229364,1,San Diego Police Department,police
261,"100 Civic Center Way, El Cajon, CA 92020, United States",32.7968556,-116.9604268,1,El Cajon Police Department,police
262,"201 Fourth Avenue, Chula Vista, CA 91915, United States",32.623882,-116.9692261,1,Chula Vista Police Department,police
263,"2 Greenhouse Ln, La Jolla, CA 92093, United States",32.8826508,-117.2296864,1,UC San Diego Police Department,police
264,"1120 27th St, San Diego, CA 92154, United States",32.5760578,-117.0759949,1,San Diego Police Department,police
265,"7222 Skyline Dr, San Diego, CA 92114, United States",32.7039165,-117.0425614,1,San Diego Police Department,police
266,"3701 Kearny Villa Rd, San Diego, CA 92123, United States",32.8163366,-117.1483406,1,San Diego Police Department Air Support Unit,police
267,"8085 University Ave, La Mesa, CA 91942, United States",32.7670261,-117.0231207,1,La Mesa Police Department,police
268,"4275 Eastgate Mall, La Jolla, CA 92037, United States",32.8768766,-117.2156345,1,San Diego Police Department Northern Division,police
269,"2560 Orion Way, Carlsbad, CA 92010, United States",33.1378479,-117.2652844,1,Carlsbad Police Department,"police, local_government_office"
270,"4310 Landis St, San Diego, CA 92105, United States",32.7467283,-117.1014417,1,San Diego Police Department Mid-City Division,police
271,"9225 Aero Dr, San Diego, CA 92123, United States",32.8094321,-117.1289725,1,San Diego Police Department Eastern Division,police
272,"315 4th Ave, Chula Vista, CA 91910, United States",32.6399925,-117.0827967,1,Chula Vista Police Department-Drugs,police
273,"700 Orange Ave, Coronado, CA 92118, United States",32.6898383,-117.1781368,1,Coronado Police Department,police
274,"8450 Mira Mesa Blvd, San Diego, CA 92126, United States",32.9131901,-117.1415653,1,San Diego Police Department RSVP Station,police
275,"9265 Aero Dr, San Diego, CA 92123, United States",32.8092644,-117.1269808,1,San Diego Police Department Traffic Division,police
276,"175 N El Camino Real, Encinitas, CA 92024, United States",33.0493802,-117.2585638,1,Solana Beach Police Department,police
277,"1200 National City Blvd, National City, CA 91950, United States",32.6720988,-117.1059307,1,National City Police Department,local_government_office
278,"12592 El Camino Real, San Diego, CA 92130, United States",32.9474838,-117.2379002,1,San Diego Police Department,police
279,"663 E San Ysidro Blvd, San Ysidro, CA 92173, United States",32.5471843,-117.0327534,1,Community Relations Office-Police,police
280,"1000 Bay Marina Dr, National City, CA 91950, United States",32.658481,-117.1126297,1,San Diego Dispatch,police
281,"Campus Way, San Marcos, CA 92078, United States",33.1341738,-117.1543263,1,CSUSM Police,police
282,"4439 Olney St, San Diego, CA 92109, United States",32.8012417,-117.2292718,1,SDPD Community Relations,police
283,"5499 Remington Rd, San Diego, CA 92115, United States",32.7746112,-117.0768169,1,SDSU Police Department,"police, local_government_office"
284,"1536 Frazee Rd, San Diego, CA 92108, United States",32.774002,-117.159923,1,San Diego Community College Police,police
285,"5348 University Ave #100, San Diego, CA 92105, United States",32.7494215,-117.081145,1,San Diego Police Department Multi-Cultural Community Relations,"police, local_government_office"
286,"9915 Airway Rd, San Diego, CA 92154, United States",32.5599259,-116.9348073,1,SDPD #1,police
287,"7250 Mesa College Dr, San Diego, CA 92111, United States",32.8036388,-117.16496,1,College Police Substation,police
288,"Av. Las Plazas, Maestros Universitarios, 22457 Tijuana, B.C., Mexico",32.5266507,-116.941086,1,Police Station,police
289,"3350 La Jolla Village Dr, San Diego, CA 92161, United States",32.8750749,-117.2321714,1,Police & Security,police
290,"2745 Howard Ave, San Diego, CA 92104, United States",32.7537517,-117.1347781,1,SDPD North Park Storefront Office,police
291,"1200 National City Blvd, National City, CA 91950, United States",32.6718781,-117.1057822,1,National City Police-Invstgtns,police
292,"315 4th Ave, Chula Vista, CA 91910, United States",32.6399421,-117.0826832,1,Chula Vista Police-Juvenile,police
293,"950 Marina Way, Chula Vista, CA 91910, United States",32.6208499,-117.1031252,1,San Diego Harbor Police Chula Vista/South Bay Substation,police
294,"446 26th St, San Diego, CA 92102, United States",32.709783,-117.138702,1,SDPD Community Relations,police
295,"3855 Mission Ave, Oceanside, CA 92058, United States",33.2259262,-117.3290062,1,Oceanside Police Department,police
296,"8181 Allison Ave, La Mesa, CA 91942, United States",32.76588690000001,-117.0218861,1,La Mesa Police-Retired Senior,police
297,"Calle Alamo, Cd Jardin, 22610 Tijuana, B.C., Mexico",32.514168,-117.062551,1,Police station Ciudad Jardin,police
298,"637 Third Ave # A1, Chula Vista, CA 91910, United States",32.6295569,-117.0751237,1,Senator Denise Moreno-Ducheny,police
299,"Hacienda Las Delicias, 22163 Baja California, Mexico",32.4064147,-116.9412084,1,Caseta De polibaquetones,police
300,"Blvd Cuauhtémoc Sur y, Cjon. Rio Suchiate #2141, Marron, 22015 Tijuana, B.C., Mexico",32.5046213,-116.8664184,1,"Comandancia de Policia Villa Fontana, Delegacion La Presa.",police
301,"1095 Barona Rd, Lakeside, CA 92040, United States",32.942235,-116.855886,1,Barona Tribal Enforcement,police
302,"772 Jamacha Road, El Cajon, CA 92019, United States",32.7860185,-116.9279253,1,"Mo Parga Horse Training, Inc.",police
303,"El Niño, Baja California, Redondo, Baja California, Mexico",32.5068656,-116.79324,1,Caseta De Policia Mobil,police
304,"Dinamarca 15363, Azteca, 22224 Tijuana, B.C., Mexico",32.4669065,-116.9110989,1,Estación De Policía Cerro Colorado,police
305,"Av Flores Magón, Pedregalde Sta Julia, 22604 Tijuana, B.C., Mexico",32.483292,-117.065033,1,SUBDELEGACIÓN SALVATIERRA,"police, local_government_office"
306,"2560 Orion Way, Carlsbad, CA 92010, United States",33.1378478,-117.2652845,1,Carlsbad Police Explorer Post 781,police
307,"10282 Rancho Bernardo Rd, San Diego, CA 92127, United States",33.0213878,-117.1189798,1,San Diego County Sheriff's Department,"police, local_government_office"
308,"Altabrisa, 22420 Tijuana, Baja California, Mexico",32.529828,-116.9789114,1,Policia Municipal (Otay),police
309,"Calle 1 Nte. 1125, Cd Industrial, Tijuana, B.C., Mexico",32.5417886,-116.9127481,1,Police Directorate and Municipal Transit,police
310,"Carretera Antigua a, Calle Tecate n, Presa Rodriguez, 22124 Tijuana, B.C., Mexico",32.447869,-116.909639,1,Policía Municipal de Tijuana A.C. Los Pinos,police
311,"Calle Agua Caliente, Aviación, Centro, 22014 Tijuana, B.C., Mexico",32.51285,-117.002867,1,Policia Municipal,police
312,"444 W Beech St, San Diego, CA 92101, United States",32.7212205,-117.1671673,1,San Diego Police Foundation,
313,"8388 Vickers St, San Diego, CA 92111, United States",32.827772,-117.1458927,1,San Diego Police Officers Association Store; SDPOALEE, store
314,"4110 54th St, San Diego, CA 92105, United States",32.751622,-117.0797771,1,Star Pal-Police Athletic Lg,
315,"260 W Crest St, Escondido, CA 92025, United States",33.1308388,-117.0892343,1,Escondido Police Officers Association,
316,"49 3rd Ave C, Chula Vista, CA 91910, United States",32.6499427,-117.0837681,1,Chula Vista Police Ofcr Association,
317,"8304 Clairemont Mesa Blvd, San Diego, CA 92111, United States",32.8332057,-117.1451732,1,WORLD POLICE AND FIRE WINTER GAMES,
318,"650 Robinson Ave, San Diego, CA 92103, United States",32.7470492,-117.158569,1,San Diego County Law Enforcement Foundation,police
319,"5580 Overland Ave, San Diego, CA 92123, United States",32.8347007,-117.1333281,1,San Diego County Office of Emergency Services,local_government_office
320,"1222 1st Ave, San Diego, CA 92101, United States",32.7181481,-117.1642239,1,City Disaster Preparedness Office,fire_station
321,"2644 E Santiago Canyon Rd, Irvine, CA 92602, United States",33.765235,-117.7453279,1,Orange County Emergency Management,local_government_office
322,"San Diego, CA 92120, United States",32.7890652,-117.0990373,1,Emergency Management Solutions,
323,"4210 Riverwalk Pkwy, Riverside, CA 92505, United States",33.9021449,-117.4950372,1,Riverside Co. Emergency Management Department,local_government_office
324,"San Diego, CA 92111, United States",32.8257794,-117.1560966,1,San Diego County Hazardous Materials,local_government_office
325,"3665 Ethan Allen Ave, San Diego, CA 92117, United States",32.8054828,-117.2109604,1,Emergency Planning Consultants,
326,"1222 1st Ave, San Diego, CA 92101, United States",32.7179658,-117.1642703,1,San Diego Fire-Rescue Department Fire Station 1,fire_station
327,"4285 Eastgate Mall, La Jolla, CA 92037, United States",32.8769629,-117.2151829,1,San Diego Fire-Rescue Department Station 35,fire_station
328,"4206 Chamoune Ave, San Diego, CA 92115, United States",32.7534105,-117.0967309,1,San Diego Fire-Rescue Department Station 17,fire_station
329,"4605 62nd St, San Diego, CA 92115, United States",32.7608714,-117.0636231,1,San Diego Fire-Rescue Department Station 10,fire_station
330,"4711 Voltaire St, San Diego, CA 92107, United States",32.7487503,-117.2418009,1,San Diego Fire-Rescue Department Station 15,fire_station
331,"4011 32nd St, San Diego, CA 92104, United States",32.7506123,-117.124945,1,San Diego Fire-Rescue Department Station 14,fire_station
332,"4964 Imperial Ave, San Diego, CA 92113, United States",32.7046599,-117.0878204,1,San Diego Fire-Rescue Department Station 12,fire_station
333,"750 Grand Ave, San Diego, CA 92109, United States",32.7948721,-117.255279,1,San Diego Fire-Rescue Department Station 21,fire_station
334,"16966 Bernardo Center Dr, San Diego, CA 92128, United States",33.0219984,-117.0748173,1,San Diego Fire-Rescue Department Station 33,fire_station
335,"6135 Imperial Ave, San Diego, CA 92114, United States",32.7089512,-117.066446,1,San Diego Fire-Rescue Department Squad 55,fire_station
336,"3902 9th Ave, San Diego, CA 92103, United States",32.7486758,-117.1565106,1,San Diego Fire-Rescue Department Station 5,fire_station
337,"945 25th St, San Diego, CA 92102, United States",32.7155749,-117.1399596,1,San Diego Fire-Rescue Department Station 11,fire_station
338,"855 W Cedar St, San Diego, CA 92101, United States",32.7217671,-117.1707027,1,San Diego Fire-Rescue Department Station 2,fire_station
339,"3880 Kearny Villa Rd, San Diego, CA 92123, United States",32.8123629,-117.1507623,1,San Diego Fire-Rescue Department Station 28,fire_station
340,"1055 Catalina Blvd, San Diego, CA 92106, United States",32.7255794,-117.2444416,1,San Diego Fire-Rescue Department Station 22,fire_station
341,"12110 World Trade Dr, San Diego, CA 92128, United States",32.98299,-117.0733313,1,San Diego Fire-Rescue Department Station 42,fire_station
342,"9366 Friars Rd, San Diego, CA 92108, United States",32.7864695,-117.1241753,1,San Diego Fire-Rescue Department Station 45,fire_station
343,"404 Eighth Ave, San Diego, CA 92101, United States",32.7095582,-117.1575297,1,San Diego Fire-Rescue Department Station 4,fire_station
344,"2265 Coronado Ave, San Diego, CA 92154, United States",32.57617070000001,-117.0849415,1,San Diego Fire-Rescue Department Station 30,fire_station
345,"809 Nautilus St, La Jolla, CA 92037, United States",32.8326844,-117.2721421,1,San Diego Fire Department Station 13,fire_station
346,"13077 Hartfield Ave, San Diego, CA 92130, United States",32.9561252,-117.2293045,1,San Diego Fire-Rescue Department Station 24,fire_station
347,"5855 Chateau Dr, San Diego, CA 92117, United States",32.8222028,-117.1746022,1,San Diego Fire-Rescue Department Station 36,fire_station
348,"3974 Goldfinch St, San Diego, CA 92103, United States",32.74948800000001,-117.1716759,1,San Diego Fire-Rescue Department Station 8,fire_station
349,"2801 Sports Arena Blvd, San Diego, CA 92110, United States",32.7510546,-117.204423,1,San Diego Fire Department,fire_station
350,"4914 Carroll Canyon Rd, San Diego, CA 92138, United States",32.8901792,-117.2006719,1,San Diego Fire-Rescue Department Station 41,fire_station
351,"1180 Woods Dr, Chula Vista, CA 91914, United States",32.6457406,-116.9456555,1,Chula Vista Fire Department Station 8,fire_station
352,"310 N Quince St # 1, Escondido, CA 92025, United States",33.1210477,-117.0895533,1,Escondido Fire Department Station 1,fire_station
353,"1640 Santa Venetia St, Chula Vista, CA 91913, United States",32.6212176,-116.984849,1,Chula Vista Fire Department Station 7,fire_station
354,"11640 Spring Canyon Rd, San Diego, CA 92131, United States",32.923858,-117.0776363,1,San Diego Fire-Rescue Department Station 37,fire_station
355,"5064 Clairemont Dr, San Diego, CA 92117, United States",32.8338299,-117.2016421,1,San Diego Fire-Rescue Department Station 27,fire_station
356,"4949 La Cuenta Dr, San Diego, CA 92124, United States",32.8205926,-117.0985714,1,San Diego Fire-Rescue Department Station 39,fire_station
357,"6041 Edgewood Bend Ct, San Diego, CA 92130, United States",32.955333,-117.1915886,1,San Diego Fire-Rescue Department Station 47,fire_station
358,"3305 Kemper St, San Diego, CA 92110, United States",32.7525539,-117.2146211,1,San Diego Fire-Rescue Department Station 20,fire_station
359,"725 W Kalmia St, San Diego, CA 92101, United States",32.7295603,-117.169168,1,San Diego Fire-Rescue Department Station 3,fire_station
360,"3301 Bear Valley Pkwy, Escondido, CA 92025, United States",33.0775898,-117.0579334,1,Escondido Fire Department Station 4,fire_station
361,"484 Briarwood Rd, San Diego, CA 92114, United States",32.6920641,-117.0371516,1,San Diego Fire-Rescue Department Station 32,fire_station
362,"865 Imperial Beach Blvd, Imperial Beach, CA 91932, United States",32.5762617,-117.1152117,1,Imperial Beach Fire Department,fire_station
363,"7180 Skyline Dr, San Diego, CA 92130, United States",32.7035221,-117.0434116,1,San Diego Fire-Rescue Department Station 51,fire_station
364,"421 N Midway Dr, Escondido, CA 92027, United States",33.1382225,-117.0526065,1,Escondido Fire Department Station 2,fire_station
365,"447 F St, Chula Vista, CA 91910, United States",32.6399723,-117.0857513,1,Chula Vista Fire Department Station 1,fire_station
366,"829 San Vicente Rd, Ramona, CA 92065, United States",33.0366024,-116.8651543,1,CAL FIRE San Diego Ramona Fire Station 80,fire_station
367,"1220 N Ash St, Escondido, CA 92027, United States",33.1430874,-117.0759223,1,Escondido Fire Department Station 7,fire_station
368,"2190 Comstock St, San Diego, CA 92111, United States",32.7830003,-117.1715753,1,San Diego Fire-Rescue Department Station 23,fire_station
369,"13050 Community Rd, Poway, CA 92064, United States",32.9543141,-117.0411562,1,Poway Fire Department Station 1,fire_station
370,"8054 Allison Ave, La Mesa, CA 91942, United States",32.7663044,-117.0241085,1,La Mesa Fire Department Station 11,fire_station
371,"3434 Ocean View Blvd, San Diego, CA 92113, United States",32.7016017,-117.1197475,1,San Diego Fire-Rescue Department Station 19,fire_station
372,"1590 La Media Rd, San Diego, CA 92154, United States",32.5688324,-116.9627707,1,San Diego Fire-Rescue Department Station 43,fire_station
373,"6002 Camino Rico, San Diego, CA 92120, United States",32.79289860000001,-117.0665102,1,San Diego Fire-Rescue Department Station 31,fire_station
374,"693 Twining Ave, San Diego, CA 92154, United States",32.5839313,-117.0451667,1,San Diego Fire-Rescue Department Station 6,fire_station
375,"944 Cesar E. Chavez Pkwy, San Diego, CA 92113, United States",32.700977,-117.1450093,1,San Diego Fire-Rescue Department Station 7,fire_station
376,"6565 Cowles Mountain Blvd, San Diego, CA 92119, United States",32.80254,-117.0251589,1,San Diego Fire-Rescue Department Station 34,fire_station
377,"80 E J St, Chula Vista, CA 91910, United States",32.6315337,-117.0589426,1,Chula Vista Fire Department Station 2,fire_station
378,"198 W San Ysidro Blvd, San Diego, CA 92173, United States",32.5531998,-117.0474904,1,San Diego Fire-Rescue Department Station 29,fire_station
379,"2850 54th St, San Diego, CA 92105, United States",32.7353536,-117.0800694,1,San Diego Fire-Rescue Department Station 26,fire_station
380,"1808 N Nutmeg St, Escondido, CA 92026, United States",33.1494152,-117.1063252,1,Escondido Fire Department Station 3,fire_station
381,"266 E Oneida St, Chula Vista, CA 91911, United States",32.6147105,-117.0444627,1,Chula Vista Fire Department Station 9,fire_station
382,"14322 Pomerado Rd, Poway, CA 92064, United States",32.9750774,-117.0633322,1,Poway Fire Department Station 3,fire_station
383,"500 Lomas Santa Fe Dr, Solana Beach, CA 92075, United States",32.9952069,-117.2665689,1,Solana Beach Fire Department,fire_station
384,"13393 Salmon River Rd, San Diego, CA 92129, United States",32.959631,-117.1222701,1,San Diego Fire-Rescue Department Station 40,fire_station
385,"2319 Felicita Rd, Escondido, CA 92029, United States",33.0908899,-117.0852311,1,Escondido Fire Department Station 5,fire_station
386,"9988 Hibert St # 204, San Diego, CA 92131, United States",32.9140278,-117.1107109,1,GSA Government Services Administration,
387,"3989 Ruffin Rd, San Diego, CA 92123, United States",32.8153006,-117.1217415,1,County of San Diego Health and Human Services,local_government_office
388,"880 Front St # 4236, San Diego, CA 92101, United States",32.7142265,-117.1643553,1,USGSA Public Building Services,
389,"5001 73rd St, San Diego, CA 92115, United States",32.7699898,-117.0400866,1,County of San Diego Health & Human Services Agency,local_government_office
390,"802 Terminal St, San Diego, CA 92101, United States",32.7011139,-117.1595088,1,US Customs Services,
391,"550 W C St #660, San Diego, CA 92101, United States",32.7174166,-117.1678436,1,US Secret Services,
392,"10920 Via Frontera # 300, San Diego, CA 92127, United States",33.0140256,-117.0944738,1,Department of General Services,local_government_office
393,"880 Front St, San Diego, CA 92101, United States",32.7143243,-117.1641841,1,Internal Revenue Service,
394,"3707 N Harbor Dr, San Diego, CA 92101, United States",32.7317749,-117.2005337,1,US Customs Services,
395,"9601 Ridgehaven Ct, San Diego, CA 92123, United States",32.8203772,-117.1217561,1,San Diego Environmental Services,library
396,"233 W Broadway, San Diego, CA 92101, United States",32.7153356,-117.1652913,1,US Marshals Services,courthouse
397,"6255 Mission Gorge Rd, San Diego, CA 92120, United States",32.788335,-117.097399,1,"County of San Diego, Emergency Medical Services",local_government_office
398,"14715 Campo Rd, Jamul, CA 91935, United States",32.6791227,-116.8546387,1,U.S. Fish & Wildlife Services,local_government_office
399,"3666 Kearny Villa Rd, San Diego, CA 92123, United States",32.809686,-117.151515,1,Department of Child Support Services (DCSS),"local_government_office, health"
400,"3255 Camino del Rio S, San Diego, CA 92108, United States",32.7745543,-117.1229211,1,County of San Diego Behavioral Health Services,local_government_office
401,"9449 Balboa Ave, San Diego, CA 92123, United States",32.8215195,-117.1263834,1,US Department of Commerce,
402,"6255 Mission Gorge Rd, San Diego, CA 92120, United States",32.788335,-117.097399,1,San Diego Emergency Med Services,"local_government_office, health"
403,"1700 Coast Blvd, Del Mar, CA 92014, United States",32.9624138,-117.2682316,1,Del Mar Community Services Department,local_government_office
404,"San Diego, CA 92101, United States",32.7269669,-117.1647094,1,San Diego County Employee Services,local_government_office
405,"5469 Kearny Villa Rd # 201, San Diego, CA 92123, United States",32.833546,-117.1374777,1,San Diego County Health And Human Services,local_government_office
406,"1255 Imperial Ave 5th Floor, San Diego, CA 92101, United States",32.7056431,-117.1534993,1,San Diego Health and Human Services,local_government_office
407,"Airport Terminal Rd, San Diego, CA 92101, United States",32.7316407,-117.2063097,1,INTERNATIONAL ARRIVALS US CUSTOMS AND BORDER PROTECTION,
408,"9495 Customhouse Plaza, San Diego, CA 92154, United States",32.5516558,-116.9408013,1,US Agricultural Department,
409,"4165 Spruance Rd, San Diego, CA 92101, United States",32.731815,-117.2103935,1,U.S. Geological Survey,
410,"880 Front St, San Diego, CA 92101, United States",32.7144315,-117.1650079,1,US Department of Homeland Security,
411,"250 E Main St #6, El Cajon, CA 92020, United States",32.796812,-116.9588825,1,El Cajon Public Defender,
412,"9174 Sky Park Ct #100, San Diego, CA 92123, United States",32.8145854,-117.129003,1,DCMA,
413,"1802 Saturn Blvd, San Diego, CA 92154, United States",32.5659794,-117.1009021,1,Imperial Beach Border Patrol Station,
414,"401 Mile of Cars Way #200, National City, CA 91950, United States",32.6616598,-117.106038,1,San Diego IHSS Public Authority,health
415,"610 W Ash St #1018, San Diego, CA 92101, United States",32.7202347,-117.1685679,1,U.S. Customs and Border Protection - San Diego Port of Entry,
416,"1325 Front St, San Diego, CA 92101, United States",32.7196197,-117.1642703,1,USCIS San Diego Field Office,
417,"1244, 727 W San Marcos Blvd Suite 101-103, San Marcos, CA 92078, United States",33.1359389,-117.1796426,1,USCIS Application Support Center,
418,"1320 W Valley Pkwy #309, Escondido, CA 92029, United States",33.1140714,-117.1022379,1,DHHS Indian Health Services,"local_government_office, health"
419,"1243 National City Blvd, National City, CA 91950, United States",32.6719694,-117.1052233,1,National City Planning Department,local_government_office
420,"880 Front Street Mail) Suite 1234; (Physical) Suite 4251, San Diego, CA 92101, United States",32.7142141,-117.1647077,1,USCIS Field Office,
421,"5530 Overland Ave, San Diego, CA 92123, United States",32.8347943,-117.1294514,1,San Diego County Human Resources,local_government_office
422,"Sommerset Plaza, 1655 Broadway, Suite 22, 4855, Chula Vista, CA 91911, United States",32.5980475,-117.0758103,1,USCIS Application Support Center,
423,"7215 El Cajon Blvd, San Diego, CA 92115, United States",32.7685202,-117.0423186,1,San Diego Collection Inc,
424,"9573 Chesapeake Dr, San Diego, CA 92123, United States",32.8343042,-117.124658,1,City of San Diego - Engineering Field Office,local_government_office
425,"1333 Front St, San Diego, CA 92101, United States",32.7195824,-117.164401,1,Social Security Administration,
426,"525 B St, San Diego, CA 92101, United States",32.7173724,-117.1593417,1,Social Security Bldg.,local_government_office
427,"7575 Metropolitan Dr #107, San Diego, CA 92108, United States",32.7767669,-117.1566058,1,California Department of Rehabilitation,"local_government_office, health"
428,"1 Civic Center Dr #400, San Marcos, CA 92069, United States",33.1404469,-117.1609222,1,Internal Revenue Service,"accounting, finance, local_government_office"
429,"5500 Overland Ave #170, San Diego, CA 92123, United States",32.833487,-117.130381,1,County of San Diego Environmental Health,local_government_office
430,"1600 Pacific Hwy #402, San Diego, CA 92101, United States",32.7219623,-117.1721157,1,San Diego County Passport Application Acceptance Services,local_government_office
431,"330 W Broadway # 775, San Diego, CA 92101, United States",32.7161675,-117.1660509,1,San Diego County Victim Witness,local_government_office
432,"12375 Moreno Ave, Lakeside, CA 92040, United States",32.9065056,-116.9266748,1,San Diego City Lakes Recreation Division,local_government_office
433,"700 Thomas Ave, San Diego, CA 92109, United States",32.7934501,-117.2557263,1,City of San Diego,local_government_office
434,"2781 Caminito Chollas, San Diego, CA 92105, United States",32.7351895,-117.0717366,1,San Diego Street Department,local_government_office
435,"2581 Quivira Ct, San Diego, CA 92109, United States",32.76152,-117.2412013,1,San Diego Lifeguard Service,local_government_office
436,"1243 National City Blvd, National City, CA 91950, United States",32.6721199,-117.1048872,1,"City of National City, City Hall",local_government_office
437,"1700 Pacific Hwy, San Diego, CA 92101, United States",32.7219531,-117.1720326,1,San Diego County Health Services,"local_government_office, health"
438,"7575 Metropolitan Dr Office / Work Area, San Diego, CA 92108, United States",32.7767515,-117.156635,1,CCLD,local_government_office
439,"5560 Overland Ave #310, San Diego, CA 92123, United States",32.8347554,-117.1303447,1,County Veterans Service Office,local_government_office
440,"7181 Opportunity Rd, San Diego, CA 92111, United States",32.8250912,-117.1609625,1,California Department of Transportation,local_government_office
441,"5510 Overland Ave, San Diego, CA 92123, United States",32.8334823,-117.1296858,1,San Diego County Planning & Development Services,local_government_office
442,"10385 Vista Sorrento Pkwy, San Diego, CA 92121, United States",32.8968136,-117.2146991,1,FBI San Diego Field Office,
443,"1200 Third Ave #8, San Diego, CA 92101, United States",32.718141,-117.1623659,1,San Diego City Code Enforcement,local_government_office
444,"959 Felspar St, San Diego, CA 92109, United States",32.7979745,-117.252763,1,The Embassy,embassy
445,"3945 Camino del Rio S, San Diego, CA 92108, United States",32.7772552,-117.1092152,1,Consulate Honorary of Italy,embassy
446,"4365 Executive Dr # 1600, San Diego, CA 92121, United States",32.87465,-117.211827,1,Consulate General-New Zealand,embassy
447,"7825 Fay Ave # 200, La Jolla, CA 92037, United States",32.8454427,-117.275023,1,Consulate Honorary of Italy,embassy
448,"12720 Oak Knoll Rd, Poway, CA 92064, United States",32.951453,-117.055518,1,Embassy Manor,embassy
449,"601 Pacific Hwy, San Diego, CA 92101, United States",32.711955,-117.1705881,1,Embassy Suites by Hilton San Diego Bay Downtown,lodging
450,"8880 Rio San Diego Dr #800, San Diego, CA 92108, United States",32.7767083,-117.1388283,1,Consulate of Sweden San Diego,embassy
451,"1446 Front St #205, San Diego, CA 92101, United States",32.7204574,-117.165054,1,Consulate General of Finland,embassy
452,"4550 La Jolla Village Dr, San Diego, CA 92122, United States",32.874506,-117.2082297,1,Embassy Suites by Hilton San Diego La Jolla,lodging
453,"2223 Avenida De La Playa, La Jolla, CA 92037, United States",32.8533778,-117.2552378,1,Consulate Honorary of Germany,embassy
454,"Paseo de las Culturas S/N, Otay Mesa, 22425 Tijuana, B.C., Mexico",32.5233748,-116.9524949,1,U.S. Consulate General,embassy
455,"1250 Sixth Ave, San Diego, CA 92101, United States",32.71872760000001,-117.1594317,1,Japan: Honorary Consulate General in San Diego,embassy
456,"1111 Sixth Ave, San Diego, CA 92101, United States",32.7169998,-117.1589655,1,estonian consulate,embassy
457,"Chapultepec Este, 22020 Tijuana, Baja California, Mexico",32.5081241,-116.9999313,1,General Consulate,embassy
458,"402 W Broadway 4th Floor, San Diego, CA 92101, United States",32.7162428,-117.1669629,1,Canadian Consulate,embassy
459,"Palermo 6106, Roma, 22054 Tijuana, B.C., Mexico",32.5284617,-117.0592168,1,Bodega del Consulado Americano,embassy
460,"5230 Carroll Canyon Rd # 230, San Diego, CA 92121, United States",32.8916286,-117.1946207,1,United Revenue Services,embassy
461,"270 E Douglas Ave, El Cajon, CA 92020, United States",32.7941693,-116.9592492,1,Consulate Of Guatemala In San Diego,embassy
462,"San Diego, CA 92101, United States",32.7170428,-117.171821,1,embassy Suites Hote,lodging
463,"3645 Park Blvd, San Diego, CA 92103, United States",32.7442525,-117.1472388,1,Embassy Hotel,lodging
464,"Montes Olimpos 19142, Loma Dorada, 22214 Tijuana, B.C., Mexico",32.5003605,-116.9100563,1,Embajada de Sonora en Tijuana,embassy
465,"José María Velazco 2789, Zona Urbana Rio Tijuana, 22010 Tijuana, B.C., Mexico",32.5213825,-117.0133631,1,ALGRTM Marketing,
466,"Via Nomentana, Chula Vista, CA 91910, United States",32.6518967,-117.0848599,1,Либииско Посолство,embassy
467,"1790 La Plaza Dr, San Marcos, CA 92078, United States",33.1163812,-117.1953956,1,Zeisland,embassy
468,"Av. Lomas del Monte 1614, Lomas de Agua Caliente, 22025 Tijuana, B.C., Mexico",32.5012304,-117.0004883,1,Consulado de la República Popular China en Tijuana,embassy
469,"1549 India St, San Diego, CA 92101, United States",32.7216334,-117.1680251,1,Consulado General De Mexico,embassy
470,"Blvd. Agua Caliente 10470, Revolucion, 22015 Tijuana, B.C., Mexico",32.5174492,-117.0142253,1,Centro de Atención a Solicitantes (CAS),embassy
471,"1620 Fifth Ave, San Diego, CA 92101, United States",32.7222463,-117.1604817,1,Consulate of Germany,
472,"8525 Gibbs Dr Suite 304, San Diego, CA 92123, United States",32.8100665,-117.1441603,1,Consulate Honorary of France,embassy
473,"German Gedovius 10411-101, Condominio del Parque, Zona Urbana Rio Tijuana, 22320 Tijuana, B.C., Mexico",32.5203974,-117.012645,1,Consulado de Canadá,embassy
474,"565 Fifth Ave, San Diego, CA 92101, United States",32.7114267,-117.1599305,1,Embassy suites,lodging
475,"1 Park Blvd, San Diego, CA 92101, United States",32.70337,-117.1585176,1,Hilton San Diego Bayfront,lodging
476,"401 W A St, San Diego, CA 92101, United States",32.7183484,-117.1670069,1,San Diego Expedited Passport Agency,local_government_office
477,"8525 Gibbs Dr Suite 304, San Diego, CA 92123, United States",32.810067,-117.144118,1,San Diego French American Chamber of Commerce,
478,"5755 Oberlin Dr #301, San Diego, CA 92121, United States",32.8925852,-117.1942001,1,"Express Travel Services,Inc - Passport & Visa Agency San Diego","travel_agency, local_government_office"
479,"601 Pacific Hwy, San Diego, CA 92101, United States",32.7117361,-117.1702674,1,New York West,"bar, restaurant, food"
480,"4550 La Jolla Village Dr, San Diego, CA 92122, United States",32.874488,-117.208309,1,Indulge Restaurant and Bar,"restaurant, food"
481,"600 B St Suite 300, San Diego, CA 92101, United States",32.718174,-117.158689,1,"German American Chamber of Commerce California, Inc.",
482,"1960 Harbor Island Dr, San Diego, CA 92101, United States",32.7251815,-117.2090538,1,Hilton San Diego Airport/Harbor Island,lodging
483,"Embassy Suites Hotel, 4550 La Jolla Village Dr, San Diego, CA 92122, United States",32.874514,-117.20852,1,Avis Car Rental,car_rental
484,"901 Camino del Rio S, San Diego, CA 92108, United States",32.763776,-117.156493,1,Hilton San Diego Mission Valley,lodging
485,"401 K St, San Diego, CA 92101, United States",32.7080257,-117.1607766,1,Hilton San Diego Gaslamp Quarter,lodging
486,"7450 Hazard Center Dr, San Diego, CA 92108, United States",32.7700114,-117.1601746,1,DoubleTree by Hilton Hotel San Diego - Mission Valley,lodging
487,"1646 Front St, San Diego, CA 92101, United States",32.7223729,-117.1651957,1,DoubleTree by Hilton Hotel San Diego Downtown,lodging
488,"11915 El Camino Real, San Diego, CA 92130, United States",32.9357607,-117.236435,1,DoubleTree by Hilton Hotel San Diego - Del Mar,lodging
489,"1515 Hotel Cir S, San Diego, CA 92108, United States",32.758335,-117.1768659,1,DoubleTree by Hilton Hotel San Diego - Hotel Circle,lodging
490,"1531 Pacific Hwy, San Diego, CA 92101, United States",32.7212093,-117.1705556,1,Hampton Inn San Diego-Downtown,lodging
491,"855W W G St, San Diego, CA 92101, United States",32.7116911,-117.1707305,1,Embassy Suites - Valet Parking,parking
492,"5434 Kearny Mesa Rd, San Diego, CA 92111, United States",32.8342305,-117.143046,1,Hampton Inn San Diego-Kearny Mesa,lodging
493,"2151 Hotel Cir S, San Diego, CA 92108, United States",32.758538,-117.1823001,1,Hampton Inn San Diego/Mission Valley,lodging
494,"4777 Imperial Ave, San Diego, CA 92113, United States",32.7039905,-117.0920255,1,Embassy Church International San Diego,
495,"29345 Rancho California Rd, Temecula, CA 92591, United States",33.5010687,-117.1492365,1,Embassy Suites by Hilton Temecula Valley Wine Country,lodging
496,"4750 E Mountain View Dr #269, San Diego, CA 92116, United States",32.76406,-117.113429,1,Embassy Auto Insurance,insurance_agency
497,"6640 Lusk Blvd Suite 104, San Diego, CA 92121, United States",32.9007855,-117.2035335,1,Consul Honorary of France,embassy
498,"10620 Treena St Suite 230, San Diego, CA 92131, United States",32.9105914,-117.114452,1,Apostille Near Me,"embassy, finance"
499,"2211 Lee Ct, San Diego, CA 92101, United States",32.72954,-117.21167,1,Hampton Inn & Suites San Diego Airport Liberty Station,lodging
500,"11048 Ice Skate Pl, San Diego, CA 92126, United States",32.9224047,-117.1227318,1,Doubletree,lodging
501,"555 W Beech St #505, San Diego, CA 92101, United States",32.7206949,-117.1679718,1,Citizens' Law Enforcement Review Board,local_government_office
502,"13465 Camino Canada #106, El Cajon, CA 92021, United States",32.8240632,-116.9038246,1,San Diego County Law Enforcement Memorial Foundation,
503,"1600 Pacific Hwy # 602, San Diego, CA 92101, United States",32.721792,-117.1720153,1,Citizen's Law Enforcement Review Board,local_government_office
504,"100 E San Marcos Blvd Suite 400, San Marcos, CA 92069, United States",33.141474,-117.1624791,1,Law Enforcement Excellence,
505,"640 Hollister St, San Diego, CA 92154, United States",32.584932,-117.0842945,1,"Law Enforcement, Tactical Gear & Equipment", store
506,"8811 Cuyamaca St, Santee, CA 92071, United States",32.8364561,-116.9834036,1,San Diego County Sheriff's Department,"police, local_government_office"
507,"182 Santar Pl, San Marcos, CA 92069, United States",33.1418785,-117.1466126,1,San Diego County Sheriff's Department,"police, local_government_office"
508,"633 16th St, San Diego, CA 92101, United States",32.7121659,-117.1491324,1,Ace Uniforms," clothing_store, store"
509,"1340 Specialty Dr # H, Vista, CA 92081, United States",33.1404033,-117.2225814,1,National Police Supply, store
510,"10440 Black Mountain Rd, San Diego, CA 92126, United States",32.9061639,-117.1191938,1,San Diego Regional Public Safety Training Institute,police
511,"13100 Bowron Rd, Poway, CA 92064, United States",32.9553544,-117.0465333,1,San Diego County Sheriff's Department,"police, local_government_office"
512,"7918 El Cajon Blvd N - 243, La Mesa, CA 91942, United States",32.7704159,-117.0270397,1,Bail Enforcement Agency,
513,"8205 Ronson Rd A, San Diego, CA 92111, United States",32.8285894,-117.1464158,1,"San Diego Police Equipment Co, Inc.", store
514,"11486 Campo Rd, Spring Valley, CA 91978, United States",32.7402529,-116.9472791,1,San Diego County Sheriff's Department Rancho San Diego Station,"police, local_government_office"
515,"4230 Spruance Rd, San Diego, CA 92101, United States",32.7321167,-117.2100461,1,San Diego Police & Fire Training Center,school
516,"2270 Hotel Circle North, San Diego",32.760649,-117.183929,2,Crowne Plaza San Diego - Mission Valley,"night_club, lodging, bar, restaurant, food"
517,"723 Felspar Street, San Diego",32.79700200000001,-117.256484,2,TOWER23 Hotel,"lodging, restaurant, food"
518,"5300 Grand Del Mar Court, San Diego",32.9382187,-117.197682,2,Fairmont Grand Del Mar,"lodging, restaurant, food"
519,"5000 Willows Road, Alpine",32.8416617,-116.7055855,2,Viejas Casino & Resort,"casino, bowling_alley, spa, lodging, restaurant, food"
520,"1660 Coast Boulevard, Del Mar",32.961908,-117.268087,2,Jake's Del Mar,"bar, restaurant, food"
521,"520 Orange Avenue #1827, Coronado",32.692852,-117.1763324,2,Crown City Inn,"lodging, restaurant, food"
522,"4545 La Jolla Village Drive Suite e-25, San Diego",32.871415,-117.2115387,2,Westfield UTC,"shopping_mall, department_store, movie_theater, shoe_store, restaurant, food, clothing_store, store"
523,"1640 Camino Del Rio North, San Diego",32.7679317,-117.1511507,2,Westfield Mission Valley,"shopping_mall, department_store, movie_theater, shoe_store, restaurant, food, clothing_store, store"
524,"1410 Rosecrans Street, San Diego",32.7252086,-117.2289268,2,Pearl Hotel,"lodging, restaurant, food"
525,"2660 Calhoun Street, San Diego",32.754574,-117.1964137,2,Cosmopolitan Hotel and Restaurant,"lodging, restaurant, food"
526,"705 Sixth Avenue, San Diego",32.7128951,-117.1590946,2,Buca di Beppo Italian Restaurant,"restaurant, food"
527,"3007 Dehesa Road, El Cajon",32.784501,-116.883605,2,Singing Hills Golf Resort at Sycuan,"spa, lodging, bar, restaurant, food"
528,"1430 Union Street, San Diego",32.72028100000001,-117.165959,2,Extraordinary Desserts,"restaurant, food"
529,"9350 Kearny Mesa Road, San Diego",32.892777,-117.119059,2,Quality Inn San Diego Miramar,"lodging, bar, restaurant, food"
530,"2816 Historic Decatur Road, San Diego",32.7405632,-117.2115578,2,Stone Brewing World Bistro & Gardens – Liberty Station,"bar, liquor_store, restaurant, food, store"
531,"4529 Mission Bay Drive, San Diego",32.80351149999999,-117.2164992,2,Sushi Ota,"restaurant, food"
532,"5469 Casino Way, El Cajon",32.7861973,-116.8296229,2,Sycuan Casino Resort,"casino, tourist_attraction, spa, lodging, restaurant, food"
533,"1999 Citracado Parkway, Escondido",33.11565900000001,-117.119979,2,Stone Brewing World Bistro & Gardens - Escondido,"tourist_attraction, bar, liquor_store, restaurant, food, store"
534,"2870 Fourth Avenue, San Diego",32.73527550000001,-117.1614378,2,Extraordinary Desserts,"bakery, cafe, restaurant, food, store"
535,"3750 Sports Arena Boulevard, San Diego",32.7548759,-117.2158625,2,Phil's BBQ,"restaurant, food"
536,"1055 Fifth Avenue, San Diego",32.7164551,-117.1593975,2,House of Blues San Diego,"restaurant, food, store"
537,"272 East Via Rancho Parkway, Escondido",33.0708428,-117.0659732,2,Westfield North County,"shopping_mall, department_store, shoe_store, restaurant, food, clothing_store, store"
538,"329 Market Street, San Diego",32.71136,-117.161294,2,Royal India - Gaslamp Downtown San Diego,"restaurant, food"
539,"525 East Harbor Drive, San Diego",32.7046596,-117.1633,2,Joe's Crab Shack,"restaurant, food"
540,"3940 Fifth Avenue, San Diego",32.748994,-117.160602,2,Snooze an A.M. Eatery,"cafe, restaurant, food"
541,"3030 Plaza Bonita Road Ste 2075, National City",32.6545334,-117.0653717,2,Westfield Plaza Bonita,"shopping_mall, department_store, movie_theater, shoe_store, restaurant, food, clothing_store, store"
542,"807 West Harbor Drive, San Diego",32.70860700000001,-117.1685275,2,Buster's Beach House,"restaurant, food"
543,"4150 Regents Park Row #100, La Jolla",32.8733956,-117.2180492,2,Regents Pizzeria,"restaurant, food"
544,"939 Fourth Avenue, San Diego",32.71519559999999,-117.160933,2,Rei Do Gado Brazilian Steak House & Seafood,"bar, restaurant, food"
545,"2750 Dewey Road #193, San Diego",32.7381938,-117.2123189,2,Slater's 50/50,"bar, restaurant, food"
546,"9675 Scranton Road, San Diego",32.8965403,-117.201789,2,Karl Strauss Brewing Company,"bar, restaurant, food"
547,"1137 25th Street, San Diego",32.71764479999999,-117.1400522,2,Pizzeria Luigi,"restaurant, food"
548,"275 Fifth Avenue, San Diego",32.708209,-117.159952,2,The Old Spaghetti Factory,"meal_takeaway, bar, restaurant, food"
549,"3500 Sports Arena Boulevard, San Diego",32.7551821,-117.2123081,2,Ruby's Diner,"restaurant, food"
550,"400 J Street, San Diego",32.7095029,-117.1608037,2,The Oceanaire Seafood Room,"restaurant, food"
551,"1250 Prospect Street, La Jolla",32.8493995,-117.2719311,2,George's at the Cove,"restaurant, food"
552,"7067 Friars Road, San Diego",32.76918,-117.1656,2,The Cheesecake Factory,"restaurant, meal_takeaway, food"
553,"4545 La Jolla Village Drive, Suite FC 5, San Diego",32.870514,-117.2104666,2,Royal India Express,"restaurant, food, store"
554,"611 Fifth Avenue, San Diego",32.7117857,-117.1599668,2,Searsucker San Diego,"night_club, bar, restaurant, food"
555,"4540 La Jolla Village Drive, San Diego",32.8741583,-117.2093475,2,P.F. Chang's,"meal_takeaway, restaurant, food"
556,"2400 Historic Decatur Road, San Diego",32.7355004,-117.2160079,2,Tender Greens,"restaurant, food"
557,"10788 Westview Parkway, San Diego",32.91671,-117.121063,2,Mimi's Bistro + Bakery,"bakery, meal_takeaway, cafe, bar, restaurant, food, store"
558,"2150 Harbor Island Drive, San Diego",32.7241549,-117.2132062,2,Tom Ham's Lighthouse,"restaurant, food"
559,"750 North Harbor Drive, San Diego",32.7123016,-117.1755992,2,The Fish Market - San Diego,"bar, restaurant, food"
560,"880 Harbor Island Drive, San Diego",32.7241583,-117.1885779,2,Island Prime,"bar, restaurant, food"
561,"711 Pacific Beach Drive, San Diego",32.7908832,-117.2550732,2,World Famous,"restaurant, food"
562,"2931 Camino Del Rio North, San Diego",32.772682,-117.131802,2,Dave & Buster's,"bar, restaurant, food"
563,"3964 Harney Street, San Diego",32.75228009999999,-117.1955009,2,Harney Sushi,"restaurant, food"
564,"5010 Newport Avenue, San Diego",32.7471859,-117.251213,2,Hodad's,"restaurant, food"
565,"340 Fifth Avenue, San Diego",32.708922,-117.160344,2,Gaslamp Strip Club,"bar, restaurant, food"
566,"2461 San Diego Avenue, San Diego",32.7521069,-117.1943824,2,Cafe Coyote,"restaurant, food"
567,"8262 Clairemont Mesa Boulevard, San Diego",32.833882,-117.1463722,2,Societe Brewing Company,"bar, restaurant, food"
568,"16761 Bernardo Center Drive, San Diego",33.0171233,-117.0743224,2,Urge American Gastropub,"bar, restaurant, food"
569,"3667 India Street, San Diego",32.7419603,-117.179907,2,Blue Water Seafood Market & Grill,"restaurant, food"
570,"2230 Shelter Island Drive, San Diego",32.7194332,-117.220418,2,Bali Hai Restaurant,"restaurant, food"
571,"10749 Westview Parkway, Mira Mesa",32.9165642,-117.1183603,2,Buca di Beppo Italian Restaurant,"restaurant, food"
572,"3416 Adams Avenue, San Diego",32.763498,-117.1203007,2,Blind Lady Ale House,"bar, restaurant, food"
573,"1 Park Boulevard, San Diego",32.7031746,-117.158887,2,Vela,"restaurant, bar, food"
574,"7077 Friars Road, San Diego",32.7700364,-117.1633959,2,P.F. Chang's,"meal_takeaway, restaurant, food"
575,"13330 Paseo Del Verano Norte, San Diego",33.0332685,-117.0471131,2,Bernardo Winery,"tourist_attraction, cafe, bar, restaurant, food, store"
576,"Mira Mesa MarketCenter, 10775 Westview Parkway, San Diego",32.9166044,-117.1193975,2,Barnes & Noble,"book_store, cafe, food, store"
577,"4180 Clairemont Mesa Boulevard, San Diego",32.831004,-117.202227,2,Krispy Kreme,"bakery, cafe, restaurant, food, store"
578,"4646 Convoy Street Ste 106B, San Diego",32.8248571,-117.1559327,2,Tapioca Express,"cafe, food"
579,"1640 Camino Del Rio North FC13, San Diego",32.7688186,-117.1472029,2,Cafe Soleil,"cafe, food, store"
580,"1128 25th Street, San Diego",32.7174897,-117.1405609,2,Krakatoa,"cafe, restaurant, food, store"
581,"1280 12th Avenue, San Diego",32.7186937,-117.1540936,2,McDonald's,"cafe, restaurant, food, store"
582,"225 Broadway Circle Suite 160, San Diego",32.714954,-117.162679,2,Panera Bread,"bakery, meal_takeaway, cafe, restaurant, food, store"
583,"1640 Camino Del Rio North #1228, San Diego",32.769398,-117.14738,2,Starbucks,"cafe, food, store"
584,"6655 Alvarado Road, San Diego",32.7766415,-117.0573188,2,Refresh Coffee,"cafe, food, store"
585,"1555 Camino Del Mar #209, Del Mar",32.9602686,-117.2649363,2,Pacifica Breeze Cafe,"cafe, restaurant, food"
586,"350 University Avenue, San Diego",32.7484771,-117.1618988,2,Bread and Cie Bakery/Cafe,"cafe, bakery, restaurant, food, store"
587,"5627 La Jolla Boulevard, La Jolla",32.8144645,-117.2696757,2,Bird Rock Coffee Roasters,"cafe, food, store"
588,"2015 Birch Road STE 508, Chula Vista",32.6239472,-116.9675048,2,Nestle Toll House Cafe by Chip,"cafe, bakery, restaurant, food, store"
589,"4496 Park Boulevard, San Diego",32.7589366,-117.1463945,2,Lestat's on Park,"cafe, food, store"
590,"Trolley Square, 9938 Mission Gorge Road, Santee",32.83909069999999,-116.9799993,2,Barnes & Noble,"book_store, cafe, food, store"
591,"1163 South Coast Highway 101 A, Encinitas",33.037122,-117.292159,2,Swami's Cafe,"cafe, restaurant, food"
592,"404 Camino del Rio South, San Diego",32.7611154,-117.1621284,2,Morning Bird Coffee,"cafe, food, store"
593,"4330 La Jolla Village Drive, San Diego",32.8747665,-117.2133647,2,Specialty's Café & Bakery,"bakery, cafe, restaurant, food, store"
594,"4150 Regents Park Row Ste 180, La Jolla",32.8729612,-117.2175092,2,Einstein Bros. Bagels,"bakery, cafe, restaurant, food, store"
595,"4000 Coronado Bay Road, Coronado",32.6312502,-117.1352719,2,Crown Landing,"cafe, restaurant, food"
596,"10751 Westview Parkway Suite C1, San Diego",32.916323,-117.118376,2,Panera Bread,"bakery, meal_takeaway, cafe, restaurant, food, store"
597,"Gateway Shopping Center, 810 West Valley Parkway, Escondido",33.1184502,-117.0934743,2,Barnes & Noble,"book_store, cafe, food, store"
598,"5091 Niagara Avenue, San Diego",32.7496379,-117.2575931,2,Ocean Beach Pier Cafe,"cafe, restaurant, food"
599,"3933 30th Street, San Diego",32.749206,-117.12983,2,Caffè Calabria,"cafe, bar, restaurant, food"
600,"710 Dennery Road, San Diego",32.581433,-117.035518,2,McDonald's,"cafe, restaurant, food, store"
601,"7830 Trade Street #100, San Diego",32.889382,-117.15258,2,Brothers Signature Catering & Events,"meal_delivery, cafe, food"
602,"7007 Friars Road #251, San Diego",32.7676407,-117.1681065,2,Better Buzz Coffee Roasters,"cafe, food, store"
603,"Town Center, 2015 Birch Road Suite 700, Chula Vista",32.6242468,-116.9661905,2,Barnes & Noble,"book_store, cafe, food, store"
604,"101 Market Street #100, San Diego",32.7113001,-117.163456,2,Lani Coffee,"bakery, meal_takeaway, cafe, restaurant, food, store"
605,"600 West Broadway Suite 115, San Diego",32.7159756,-117.1688525,2,Starbucks,"cafe, food, store"
606,"9812 Mission Gorge Road, Santee",32.839844,-116.983451,2,Mimi's Bistro + Bakery,"bakery, meal_takeaway, cafe, bar, restaurant, food, store"
607,"8610 Kennel Way, La Jolla",32.8645397,-117.2541726,2,Caroline's Seaside Cafe,"cafe, restaurant, food"
608,"4260 Nobel Drive, San Diego",32.86682119999999,-117.2153675,2,McDonald's,"cafe, restaurant, food, store"
609,"127 North El Camino Real ste c, Encinitas",33.048079,-117.257941,2,Nekter Juice Bar,"cafe, restaurant, food"
610,"777 Sixth Avenue #105, San Diego",32.713107,-117.159018,2,Coffee & Art,"art_gallery, cafe, food, store"
611,"7467 Girard Avenue, La Jolla",32.8402545,-117.2721353,2,Pannikin La Jolla,"cafe, food, store"
612,"1109 Wall Street, La Jolla",32.8467583,-117.2729074,2,Coffee Cup,"cafe, restaurant, food, store"
613,"425 Robinson Avenue, San Diego",32.746816,-117.1608914,2,Crest Cafe,"cafe, restaurant, food"
614,"4620 Pacific Highway, San Diego",32.7562501,-117.2014835,2,Perry's Cafe,"cafe, food"
615,"4590 Park Boulevard, San Diego",32.7607927,-117.1465583,2,Twiggs,"cafe, restaurant, food, store"
616,"727 East San Ysidro Boulevard, San Ysidro",32.5443738,-117.0290659,2,McDonald's,"cafe, restaurant, food, store"
617,"6061 El Cajon Boulevard, San Diego",32.76042650000001,-117.0676621,2,Tea Station,"cafe, restaurant, food, store"
618,"1025 Camino De La Reina #3, San Diego",32.768083,-117.152982,2,Corner Bakery Cafe,"bakery, cafe, restaurant, food, store"
619,"1501 India Street, San Diego",32.7213781,-117.168129,2,Breakfast at Stephanies,"meal_takeaway, cafe, restaurant, food, store"
620,"2230 East Plaza Boulevard, National City",32.678107,-117.0821058,2,Starbucks,"cafe, food, store"
621,"1935 Calle Barcelona, Carlsbad",33.072626,-117.266309,2,Panera Bread,"bakery, meal_takeaway, cafe, restaurant, food, store"
622,"2305 Otay Lakes Road Suite 206, Chula Vista",32.6492046,-116.9653902,2,Krispy Kreme,"bakery, cafe, restaurant, food, store"
623,"Allied Office Plaza, 7777 Alvarado Road #400, La Mesa",32.771858,-117.031912,2,Vic's Deli & Cafe,"bakery, meal_takeaway, cafe, restaurant, food, store"
624,"350 University Avenue Suite D, San Diego",32.748394,-117.161986,2,Peet's Coffee,"cafe, food, store"
625,"8750 Genesee Avenue #244, San Diego",32.869634,-117.215404,2,Starbucks,"cafe, food, store"
626,"510 North Coast Highway 101, Encinitas",33.0583002,-117.299643,2,Pannikin Coffee & Tea,"cafe, restaurant, food, store"
627,"4150 Regents Park Row, La Jolla",32.872842,-117.21743,2,Starbucks,"cafe, food, store"
628,"3753 India Street, San Diego",32.74319999999999,-117.180951,2,Gelato Vero Caffe,"cafe, restaurant, food, store"
629,"3810 Valley Centre Drive #903, San Diego",32.9383783,-117.2303064,2,Spices Thai Cafe,"cafe, restaurant, food"
630,"1948 Broadway, San Diego",32.71596,-117.1460256,2,Influx Cafe,"cafe, food, store"
631,"9265 Sky Park Court, San Diego",32.81460390000001,-117.1271653,2,Sky Park Cafe & Deli,"cafe, restaurant, food"
632,"4840 Shawline Street, San Diego",32.8296992,-117.1650221,2,Walmart,"department_store, supermarket, grocery_or_supermarket, food, store"
633,"3382 Murphy Canyon Road, San Diego",32.8053355,-117.1163641,2,Walmart,"department_store, supermarket, grocery_or_supermarket, food, store"
634,"711 University Avenue, San Diego",32.7479714,-117.1580689,2,Whole Foods Market,"grocery_or_supermarket, supermarket, food, health, store"
635,"3412 College Avenue, San Diego",32.7416849,-117.053625,2,Walmart Supercenter,"department_store, supermarket, grocery_or_supermarket, electronics_store, food, store"
636,"7330 Clairemont Mesa Boulevard, San Diego",32.8336331,-117.1608732,2,99 Ranch Market,"supermarket, grocery_or_supermarket, food, store"
637,"710 Dennery Road, San Diego",32.58163810000001,-117.0354571,2,Walmart,"department_store, supermarket, grocery_or_supermarket, food, store"
638,"8825 Villa La Jolla Drive, La Jolla",32.8687404,-117.2306258,2,Whole Foods Market,"grocery_or_supermarket, supermarket, food, health, store"
639,"1090 University Ave Ste G100-107, San Diego",32.7498752,-117.1538189,2,Trader Joe's,"grocery_or_supermarket, florist, supermarket, liquor_store, food, health, store"
640,"13425 Community Road, Poway",32.95906790000001,-117.0376641,2,Walmart Supercenter,"department_store, supermarket, grocery_or_supermarket, electronics_store, food, store"
641,"1200 Highland Avenue, National City",32.67476919999999,-117.0993336,2,Walmart Supercenter,"department_store, supermarket, grocery_or_supermarket, electronics_store, food, store"
642,"8657 Villa La Jolla Drive, La Jolla",32.86574529999999,-117.2317254,2,Trader Joe's,"grocery_or_supermarket, florist, supermarket, liquor_store, food, health, store"
643,"605 Fletcher Parkway, El Cajon",32.804311,-116.968388,2,Walmart,"department_store, supermarket, grocery_or_supermarket, food, store"
644,"4140 Clairemont Mesa Boulevard, San Diego",32.83048639999999,-117.2026051,2,99 Cents Only Stores,"supermarket, grocery_or_supermarket, furniture_store, home_goods_store, food, store"
645,"5495 Grossmont Center Drive, La Mesa",32.7792966,-117.0056147,2,Trader Joe's,"grocery_or_supermarket, florist, supermarket, liquor_store, food, health, store"
646,"575 Saturn Boulevard, San Diego",32.58693900000001,-117.08928,2,Walmart,"department_store, supermarket, grocery_or_supermarket, food, store"
647,"1640 Garnet Avenue, San Diego",32.8009867,-117.2407468,2,Trader Joe's,"grocery_or_supermarket, florist, supermarket, liquor_store, food, health, store"
648,"2600 Via De La Valle Ste 100, Del Mar",32.9813347,-117.251904,2,Whole Foods Market,"grocery_or_supermarket, supermarket, food, health, store"
649,"5931 University Avenue, San Diego",32.7496525,-117.0694261,2,99 Cents Only Stores,"supermarket, grocery_or_supermarket, furniture_store, home_goods_store, food, store"
650,"732 Center Drive, San Marcos",33.135668,-117.1233933,2,Walmart,"department_store, supermarket, grocery_or_supermarket, food, store"
651,"8955 Mira Mesa Boulevard, San Diego",32.9136685,-117.1316599,2,Seafood City Supermarket,"bakery, supermarket, grocery_or_supermarket, restaurant, food, store"
652,"2401 Truxtun Road, San Diego",32.7359623,-117.2172925,2,Trader Joe's,"grocery_or_supermarket, florist, supermarket, liquor_store, food, health, store"
653,"1360 Eastlake Parkway, Chula Vista",32.6309147,-116.9681333,2,Walmart Supercenter,"department_store, supermarket, grocery_or_supermarket, electronics_store, food, store"
654,"9850 Hibert Street, San Diego",32.9144947,-117.1151691,2,Trader Joe's,"grocery_or_supermarket, florist, supermarket, liquor_store, food, health, store"
655,"170 Town Center Parkway, Santee",32.842063,-116.9898409,2,Walmart,"department_store, supermarket, grocery_or_supermarket, food, store"
656,"5500 Grossmont Center Drive, La Mesa",32.7776101,-117.0090586,2,Walmart,"department_store, supermarket, grocery_or_supermarket, food, store"
657,"1002 Market Street, San Diego",32.7120024,-117.1549994,2,Grocery Outlet Bargain Market,"grocery_or_supermarket, supermarket, food, store"
658,"11955 Carmel Mountain Road, San Diego",32.9821123,-117.0750506,2,Trader Joe's,"grocery_or_supermarket, florist, supermarket, liquor_store, food, health, store"
659,"1550 Leucadia Boulevard, Encinitas",33.06921779999999,-117.266337,2,Walmart Supercenter,"department_store, supermarket, grocery_or_supermarket, electronics_store, food, store"
660,"75 N Broadway, Chula Vista",32.651633,-117.0942306,2,Walmart,"department_store, supermarket, grocery_or_supermarket, food, store"
661,"5905 Balboa Avenue, San Diego",32.8188436,-117.1778948,2,Balboa International Market,"supermarket, grocery_or_supermarket, food, store"
662,"9326 Mira Mesa Boulevard, San Diego",32.91885599999999,-117.1244519,2,Lucky Seafood,"supermarket, grocery_or_supermarket, food, store"
663,"1330 East Grand Avenue, Escondido",33.1301669,-117.0629305,2,Walmart,"department_store, supermarket, grocery_or_supermarket, food, store"
664,"1885 South Centre City Parkway, Escondido",33.10086390000001,-117.0742199,2,Trader Joe's,"grocery_or_supermarket, florist, supermarket, liquor_store, food, health, store"
665,"115 North El Camino Real, Encinitas",33.0471008,-117.2558081,2,Trader Joe's,"grocery_or_supermarket, florist, supermarket, liquor_store, food, health, store"
666,"Boulevard Cucapah 21212, Jardin Dorado, Tijuana",32.5136065,-116.8881151,2,Soriana Hiper CUCAPAH,"supermarket, grocery_or_supermarket, food, store"
667,"5065 Logan Avenue, San Diego",32.6962267,-117.0866712,2,Family Dollar,"supermarket, grocery_or_supermarket, food, clothing_store, store"
668,"1150 Broadway, Chula Vista",32.60673060000001,-117.0830304,2,Walmart,"department_store, supermarket, grocery_or_supermarket, food, store"
669,"2629 Gateway Road, Carlsbad",33.1265912,-117.2530686,2,Trader Joe's,"grocery_or_supermarket, florist, supermarket, liquor_store, food, health, store"
670,"6935 Linda Vista Road, San Diego",32.78446700000001,-117.169781,2,Sieu Thi Thuan Phat Supermarket,"supermarket, grocery_or_supermarket, food, store"
671,"13487 Camino Canada, El Cajon",32.8226466,-116.9018065,2,Walmart Supercenter,"department_store, supermarket, grocery_or_supermarket, electronics_store, food, store"
672,"4240 Kearny Mesa Road, San Diego",32.81889419999999,-117.1505562,2,Mitsuwa Marketplace - San Diego,"supermarket, grocery_or_supermarket, restaurant, food, store"
673,"3551 El Cajon Boulevard, San Diego",32.7549423,-117.1165352,2,North Park Produce,"supermarket, grocery_or_supermarket, food, store"
674,"Avenida de los Insurgentes 18015, Rio Tijuana 3ra Etapa, Tijuana",32.49571699999999,-116.9346682,2,Walmart,"supermarket, grocery_or_supermarket, food, store"
675,"1320 Highland Avenue, National City",32.67308260000001,-117.0977238,2,99 Cents Only Stores,"supermarket, grocery_or_supermarket, furniture_store, home_goods_store, food, store"
676,"3560 Ashford Street, San Diego",32.8087453,-117.160843,2,Carnival Market,"supermarket, grocery_or_supermarket, food, store"
677,"878 Eastlake Parkway Ste 810, Chula Vista",32.6513234,-116.9703882,2,Trader Joe's,"grocery_or_supermarket, florist, supermarket, liquor_store, food, health, store"
678,"Corredor Tijuana - Rosarito 2000 No. 819, Poblado Delejido Francisco Villa, Tijuana",32.4933415,-116.8523933,2,Walmart,"supermarket, grocery_or_supermarket, food, store"
679,"3446 Highland Avenue, National City",32.6528989,-117.0914584,2,Grocery Outlet Bargain Market,"grocery_or_supermarket, supermarket, food, store"
680,"Boulevard Agua Caliente No. 11999, Hipodromo, Tijuana",32.508247,-116.9927786,2,Walmart,"supermarket, grocery_or_supermarket, food, store"
681,"Boulevard Gustavo Diaz Ordaz 15634, La Joya Este, Tijuana",32.4878688,-116.9455473,2,Walmart Díaz Ordaz,"supermarket, grocery_or_supermarket, food, store"
682,"3948 West Point Loma Boulevard, San Diego",32.75535049999999,-117.2218679,2,Grocery Outlet Bargain Market,"grocery_or_supermarket, supermarket, food, store"
683,"2611 Market Street, San Diego",32.7112935,-117.1377935,2,99 Cents Only Stores,"supermarket, grocery_or_supermarket, furniture_store, home_goods_store, food, store"
684,"285 East Orange Avenue, Chula Vista",32.60521389999999,-117.0408194,2,Seafood City Supermarket,"supermarket, grocery_or_supermarket, food, store"
685,"1315 East Valley Parkway, Escondido",33.1304629,-117.0641511,2,Vallarta Supermarkets,"supermarket, bakery, grocery_or_supermarket, finance, liquor_store, restaurant, food, store"
686,"Bufadora, Ampliación Guaycura, Tijuana",32.5079526,-116.9192596,2,Oxxo Parque,"supermarket, grocery_or_supermarket, food, store"
687,"2687 Gateway Road, Carlsbad",33.12649319999999,-117.2517203,2,Stater Bros. Markets,"grocery_or_supermarket, florist, bakery, supermarket, food, store"
688,"Boulevard Casa Blanca 4481, Los Lobos, Tijuana",32.50207289999999,-116.8983926,2,OXXO,"convenience_store, supermarket, grocery_or_supermarket, food, store"
689,"1090 Fletcher Parkway, El Cajon",32.808175,-116.975002,2,Smart & Final Extra!,"grocery_or_supermarket, supermarket, food, store"
690,"1855 South Centre City Parkway, Escondido",33.10101960000001,-117.0754548,2,Major Market Inc,"supermarket, grocery_or_supermarket, food, store"
691,"1420 East Plaza Boulevard, National City",32.6748947,-117.0910302,2,Seafood City Supermarket,"supermarket, grocery_or_supermarket, food, store"
692,"5151 Mission Center Road, San Diego",32.769562,-117.152707,2,Best Buy,"electronics_store, home_goods_store, store"
693,"1288 Camino Del Rio North, San Diego",32.7679751,-117.1505374,2,Target,"department_store, grocery_or_supermarket, electronics_store, furniture_store, home_goods_store, food, clothing_store, store"
694,"101 G Street, San Diego",32.7118205,-117.1632245,2,Ralphs,"grocery_or_supermarket, food, store"
695,"59 N Broadway, Chula Vista",32.651428,-117.095429,2,Best Buy,"electronics_store, home_goods_store, store"
696,"9825 Stonecrest Boulevard, San Diego",32.80112239999999,-117.1145875,2,Fry's Electronics,"electronics_store, home_goods_store, store"
697,"7007 Friars Road, San Diego",32.7682239,-117.1668349,2,Apple Fashion Valley,"electronics_store, store"
698,"5500 Grossmont Center Dr Suite D29A, La Mesa",32.7782229,-117.0103464,2,AT&T Store,"electronics_store, store"
699,"8251 Mira Mesa Boulevard, San Diego",32.9103266,-117.1460789,2,Target,"department_store, grocery_or_supermarket, electronics_store, furniture_store, home_goods_store, food, clothing_store, store"
700,"Hazard Center, 7610 Hazard Center Drive #315, San Diego",32.7709846,-117.1581384,2,Barnes & Noble,"book_store, store"
701,"2149 Fenton Parkway, San Diego",32.780215,-117.1263349,2,IKEA,"furniture_store, home_goods_store, store"
702,"160 Horton Avenue, San Diego",32.71432099999999,-117.162606,2,Macy's,"department_store, shoe_store, jewelry_store, clothing_store, store"
703,"3424 College Avenue, San Diego",32.741007,-117.055583,2,Target,"department_store, grocery_or_supermarket, electronics_store, furniture_store, home_goods_store, food, clothing_store, store"
704,"1640 Camino Del Rio North, San Diego",32.76942829999999,-117.1479791,2,Nordstrom Rack Mission Valley,"department_store, shoe_store, clothing_store, store"
705,"555 Broadway Space #1070, Chula Vista",32.6307982,-117.0846027,2,AT&T Store, store
706,"3245 Sports Arena Boulevard, San Diego",32.7517923,-117.2100107,2,CVS Pharmacy,"pharmacy, health, store"
707,"111 West Harbor Drive, San Diego",32.7068214,-117.1628713,2,FedEx Office Print & Ship Center, store
708,"3555 Sports Arena Boulevard, San Diego",32.75214070000001,-117.213786,2,The Home Depot,"hardware_store, home_goods_store, store"
709,"5553 Copley Drive, San Diego",32.840301,-117.164446,2,Road Runner Sports,"shoe_store, clothing_store, store"
710,"5556 Copley Drive, San Diego",32.83848200000001,-117.163056,2,REI,"shoe_store, bicycle_store, clothing_store, store"
711,"7007 Friars Road, San Diego",32.7678229,-117.1684206,2,Gap,"clothing_store, store"
712,"4555 Mission Bay Drive, San Diego",32.8042521,-117.2169939,2,Mossy Toyota,"car_wash, finance, car_dealer, car_repair, store"
713,"6997 Friars Road, San Diego",32.768578,-117.168538,2,Nordstrom Fashion Valley,"department_store, shoe_store, clothing_store, store"
714,"12155 Tech Center Drive, Poway",32.936197,-117.0337147,2,Costco Wholesale,"department_store, store"
715,"3030 Plaza Bonita Road, National City",32.6559384,-117.0657296,2,Baskin-Robbins,"food, store"
716,"5812 Mission Gorge Road, San Diego",32.78118889999999,-117.1028192,2,DCH Honda of Mission Valley,"car_dealer, car_repair, store"
717,"3962 Clairemont Mesa Boulevard, San Diego",32.8296192,-117.203901,2,Burlington,"clothing_store, store"
718,"7585 Clairemont Mesa Boulevard, San Diego",32.83141380000001,-117.1565381,2,Kearny Mesa Bowl,"bowling_alley, bar, store"
719,"4333 La Jolla Village Drive, San Diego",32.8691,-117.212338,2,Macy's,"department_store, shoe_store, jewelry_store, furniture_store, home_goods_store, clothing_store, store"
720,"4761 Convoy Street, San Diego",32.8269651,-117.1535432,2,Pacific Honda,"car_dealer, store"
721,"2011 Camino Del Este North, San Diego",32.76991690000001,-117.1428783,2,AT&T Store, store
722,"1240 West Morena Boulevard, San Diego",32.76932650000001,-117.2039785,2,ADT Pulse, store
723,"8125 Fletcher Parkway, La Mesa",32.773744,-117.0247897,2,Costco Wholesale,"department_store, store"
724,"7017 Friars Road, San Diego",32.767367,-117.167366,2,Macy's,"department_store, shoe_store, jewelry_store, clothing_store, store"
725,"12350 Carmel Mountain Road, San Diego",32.9871672,-117.0774738,2,Costco Wholesale,"department_store, store"
726,"4516 Mission Boulevard, San Diego",32.7967533,-117.2559459,2,Urban Outfitters,"clothing_store, shoe_store, electronics_store, home_goods_store, store"
727,"5305 Metro Street, San Diego",32.766416,-117.197491,2,Wholesale Flowers and Supplies,"florist, store"
728,"5910 Mission Gorge Road, San Diego",32.7825584,-117.1006924,2,Norm Reeves Toyota San Diego,"car_dealer, car_repair, store"
729,"665 Fifth Avenue, San Diego",32.7123764,-117.1598845,2,Urban Outfitters,"clothing_store, shoe_store, electronics_store, home_goods_store, store"
730,"10604 Westview Parkway, San Diego",32.9136032,-117.1212852,2,The Home Depot,"hardware_store, home_goods_store, store"
731,"5505 Balboa Avenue, San Diego",32.81813080000001,-117.1799023,2,Kohl's Balboa,"department_store, store"
732,"Fashion Valley Mall, 7007 Friars Road, San Diego",32.7680217,-117.1675008,2,M.A.C. Cosmetics, store
733,"8825 Murray Drive, La Mesa",32.7776434,-117.0066768,2,Guitar Center,"electronics_store, home_goods_store, store"
734,San Diego,32.715738,-117.1610838,2,San Diego,"locality, political"
735,"1 Park Boulevard, San Diego",32.70337,-117.1585176,2,Hilton San Diego Bayfront,lodging
736,"326 Broadway, San Diego",32.7161492,-117.1615268,2,"THE US GRANT, a Luxury Collection Hotel, San Diego",lodging
737,"1047 Fifth Avenue, San Diego",32.7162547,-117.159884,2,Kimpton Hotel Palomar San Diego,lodging
738,"530 Broadway, San Diego",32.7158919,-117.1596918,2,Courtyard by Marriott San Diego Downtown,lodging
739,"1055 2nd Avenue, San Diego",32.7162931,-117.1624272,2,The Westgate Hotel,lodging
740,"911 Fifth Avenue, San Diego",32.7150115,-117.1598357,2,Wyndham Harbour Lights,"real_estate_agency, travel_agency, lodging"
741,"520 E Street, San Diego",32.7148473,-117.1597926,2,Gaslamp Plaza Suites,lodging
742,"432 F Street, San Diego",32.7137157,-117.1604821,2,The Keating Hotel,lodging
743,"1055 1st Avenue, San Diego",32.71642180000001,-117.1635504,2,The Bristol Hotel - A Greystone Hotel,lodging
744,"830 Sixth Avenue #6307, San Diego",32.714072,-117.15937,2,Ramada Gaslamp Convention Center,lodging
745,"910 Broadway Circle, San Diego",32.7143935,-117.1632054,2,The Westin San Diego Gaslamp Quarter,lodging
746,"600 F Street, San Diego",32.71385530000001,-117.1587941,2,Andaz San Diego - A Concept By Hyatt,lodging
747,"150 West Broadway, San Diego",32.7159428,-117.1644647,2,The Sofia Hotel,lodging
748,"726 Fifth Avenue, San Diego",32.7129475,-117.1604148,2,USA Hostels San Diego,lodging
749,"660 G Street, San Diego",32.71282300000001,-117.158605,2,Comfort Inn Gaslamp Convention Center,lodging
750,"521 Market Street, San Diego",32.7112839,-117.1597445,2,HI San Diego Downtown,lodging
751,"400 West Broadway, San Diego",32.71604080000001,-117.167054,2,The Westin San Diego,lodging
752,"615 Eighth Avenue, San Diego",32.71179299999999,-117.157301,2,Lucky D's Hostel San Diego,lodging
753,Tijuana,32.5149469,-117.0382471,2,Tijuana,"locality, political"
754,"833 Ash Street, San Diego",32.7194922,-117.1569421,2,Days Inn by Wyndham San Diego/Downtown/Convention Center,lodging
755,"1430 Seventh Avenue, San Diego",32.720433,-117.1585979,2,Holiday Inn Express San Diego Downtown,lodging
756,"311 Island Avenue, San Diego",32.7103402,-117.1612631,2,Horton Grand Hotel,lodging
757,"1546 2nd Avenue, San Diego",32.7214613,-117.1632463,2,Motel 6 San Diego Downtown,lodging
758,"435 Sixth Avenue, San Diego",32.70984039999999,-117.1588932,2,Kimpton Solamar Hotel,lodging
759,"555 West Ash Street, San Diego",32.719541,-117.167613,2,Best Western Plus Bayside Inn,lodging
760,"356 Sixth Avenue, San Diego",32.70907269999999,-117.1594756,2,Residence Inn by Marriott San Diego Downtown/Gaslamp Quarter,lodging
761,"1617 1st Avenue, San Diego",32.7223867,-117.1634806,2,Four Points by Sheraton San Diego Downtown Little Italy,lodging
762,"1646 Front Street, San Diego",32.7223729,-117.1651957,2,DoubleTree by Hilton Hotel San Diego Downtown,lodging
763,"660 K Street, San Diego",32.708445,-117.1585366,2,San Diego Marriott Gaslamp Quarter,lodging
764,"401 K Street, San Diego",32.7080257,-117.1607766,2,Hilton San Diego Gaslamp Quarter,lodging
765,"333 West Harbor Drive, San Diego",32.7084336,-117.1652026,2,Marriott Marquis San Diego Marina,lodging
766,"1 Market Place, San Diego",32.709746,-117.1678339,2,Manchester Grand Hyatt San Diego,lodging
767,"601 Pacific Highway, San Diego",32.711955,-117.1705881,2,Embassy Suites by Hilton San Diego Bay Downtown,lodging
768,"1531 Pacific Highway, San Diego",32.7212093,-117.1705556,2,Hampton Inn San Diego-Downtown,lodging
769,"606 West Date Street, San Diego",32.7232649,-117.1687145,2,LA PENSIONE HOTEL,lodging
770,"1747 Pacific Highway, San Diego",32.7233271,-117.1709882,2,Residence Inn by Marriott San Diego Downtown,lodging
771,"550 West Grape Street, San Diego",32.725964,-117.1680903,2,Harborview Inn & Suites,lodging
772,"2000 2nd Street, Coronado",32.6949134,-117.165948,2,Coronado Island Marriott Resort & Spa,lodging
773,"525 Spruce Street, San Diego",32.7385118,-117.1599024,2,Inn at the Park,"real_estate_agency, travel_agency, lodging"
774,"1380 Harbor Island Drive, San Diego",32.7270687,-117.1978609,2,Sheraton San Diego Hotel & Marina,lodging
775,"1351 Orange Avenue, Coronado",32.6826902,-117.1776304,2,The El Cordova Hotel,lodging
776,"1415 Orange Avenue, Coronado",32.681831,-117.177043,2,Coronado Beach Resort,lodging
777,"1500 Orange Avenue, Coronado",32.6808631,-117.1782554,2,"Hotel del Coronado, Curio Collection by Hilton",lodging
778,"1960 Harbor Island Drive, San Diego",32.7251815,-117.2090538,2,Hilton San Diego Airport/Harbor Island,lodging
779,"2223 El Cajon Boulevard, San Diego",32.754849,-117.140722,2,"The Lafayette Hotel, Swim Club & Bungalows",lodging
780,"3900 Old Town Avenue, San Diego",32.7495672,-117.1928217,2,Fairfield Inn & Suites by Marriott San Diego Old Town,lodging
781,"2380 Moore Street, San Diego",32.74938299999999,-117.1947126,2,La Quinta Inn & Suites by Wyndham San Diego Old Town/Airport,lodging
782,"1515 Hotel Circle South, San Diego",32.758335,-117.1768659,2,DoubleTree by Hilton Hotel San Diego - Hotel Circle,lodging
783,"1333 Hotel Circle South, San Diego",32.7588703,-117.1751486,2,Kings Inn San Diego,lodging
784,"543 Hotel Circle South, San Diego",32.7602697,-117.1672923,2,Days Inn San Diego Hotel Circle Near SeaWorld,lodging
785,"2435 Jefferson Street, San Diego",32.7502634,-117.1953099,2,Courtyard by Marriott San Diego Old Town,lodging
786,"1865 Hotel Circle South, San Diego",32.75787930000001,-117.1800497,2,Residence Inn by Marriott San Diego Mission Valley,lodging
787,"411 Hotel Circle South, San Diego",32.760658,-117.166067,2,Best Western Seven Seas,lodging
788,"1631 Hotel Circle South, San Diego",32.7588489,-117.1785746,2,Howard Johnson by Wyndham San Diego Hotel Circle,lodging
789,"4041 Harney Street, San Diego",32.753251,-117.194205,2,Best Western Plus Hacienda Hotel Old Town,lodging
790,"950 Hotel Circle North, San Diego",32.7614087,-117.1729343,2,Handlery Hotel San Diego,lodging
